__time,/control/accel/data,/control/steering/data,/est_state_info/X,/est_state_info/Y,/est_state_info/ax,/est_state_info/ay,/est_state_info/pitch,/est_state_info/roll,/est_state_info/s,/est_state_info/timestamp_ms,/est_state_info/vx,/est_state_info/vy,/est_state_info/x,/est_state_info/y,/est_state_info/yaw,/est_state_info/yaw_rate
1622730202.434,,,1.386566,0.028983,0.000000,0.000000,0.000000,0.000000,0.013020,0.000000,0.765806,-0.016486,0.000000,0.000000,-0.010006,0.135042
1622730202.434,,,1.394772,0.028981,0.000000,0.000000,0.000000,0.000000,0.013933,0.000000,0.765231,-0.016270,0.000000,0.000000,-0.008387,0.146276
1622730202.434,,,1.403533,0.029121,0.000000,0.000000,0.000000,0.000000,0.015146,0.000000,0.764402,-0.016515,0.000000,0.000000,-0.006593,0.157317
1622730202.434,,,1.414433,0.029313,0.000000,0.000000,0.000000,0.000000,0.018185,0.000000,0.761870,-0.016051,0.000000,0.000000,-0.004172,0.183065
1622730202.434,,,1.426877,0.029576,0.000000,0.000000,0.000000,0.000000,0.021975,0.000000,0.759237,-0.015674,0.000000,0.000000,-0.000945,0.210161
1622730202.434,0.302875,,,,,,,,,,,,,,,
1622730202.434,,,1.438673,0.029947,0.000000,0.000000,0.000000,0.000000,0.024047,0.000000,0.757326,-0.014969,0.000000,0.000000,0.002499,0.245503
1622730202.434,,,1.451643,0.030452,0.000000,0.000000,0.000000,0.000000,0.028232,0.000000,0.755628,-0.013186,0.000000,0.000000,0.006935,0.280659
1622730202.435,,,1.460277,0.030841,0.000000,0.000000,0.000000,0.000000,0.030346,0.000000,0.754417,-0.012205,0.000000,0.000000,0.010305,0.301582
1622730202.435,0.323440,,,,,,,,,,,,,,,
1622730202.435,,,1.476630,0.031626,0.000000,0.000000,0.000000,0.000000,0.032457,0.000000,0.740081,-0.011003,0.000000,0.000000,0.017042,0.337875
1622730202.435,0.341666,,,,,,,,,,,,,,,
1622730202.435,,,1.495043,0.032654,0.000000,0.000000,0.000000,0.000000,0.037736,0.000000,0.740106,-0.009680,0.000000,0.000000,0.025716,0.377286
1622730202.436,,,1.507186,0.033449,0.000000,0.000000,0.000000,0.000000,0.044448,0.000000,0.741862,-0.008874,0.000000,0.000000,0.032186,0.403155
1622730202.436,,,1.516423,0.034097,0.000000,0.000000,0.000000,0.000000,0.048145,0.000000,0.742796,-0.008705,0.000000,0.000000,0.037297,0.420349
1622730202.436,0.403765,,,,,,,,,,,,,,,
1622730202.439,,,1.524522,0.034704,0.000000,0.000000,0.000000,0.000000,0.052038,0.000000,0.743611,-0.008620,0.000000,0.000000,0.042001,0.434380
1622730202.457,,,1.537546,0.035739,0.000000,0.000000,0.000000,0.000000,0.060698,0.000000,0.749282,-0.008556,0.000000,0.000000,0.049952,0.455610
1622730202.457,,,1.549508,0.036864,0.000000,0.000000,0.000000,0.000000,0.065418,0.000000,0.754905,-0.008687,0.000000,0.000000,0.057476,0.474019
1622730202.467,0.380953,,,,,,,,,,,,,,,
1622730202.478,,,1.559837,0.037905,0.000000,0.000000,0.000000,0.000000,0.070213,0.000000,0.759313,-0.008889,0.000000,0.000000,0.064248,0.488665
1622730202.495,,,1.578225,0.039868,0.000000,0.000000,0.000000,0.000000,0.080697,0.000000,0.764532,-0.009002,0.000000,0.000000,0.076858,0.519004
1622730202.507,,,1.590523,0.041329,0.000000,0.000000,0.000000,0.000000,0.090920,0.000000,0.768394,-0.009262,0.000000,0.000000,0.085912,0.536030
1622730202.519,0.334878,,,,,,,,,,,,,,,
1622730202.531,,,1.598455,0.042340,0.000000,0.000000,0.000000,0.000000,0.090920,0.000000,0.771395,-0.009486,0.000000,0.000000,0.091907,0.546100
1622730202.547,,,1.615989,0.044674,0.000000,0.000000,0.000000,0.000000,0.105942,0.000000,0.772911,-0.009755,0.000000,0.000000,0.105716,0.571193
1622730202.561,,0.263117,,,,,,,,,,,,,,
1622730202.562,0.274528,,,,,,,,,,,,,,,
1622730202.567,,,1.627470,0.046366,0.000000,0.000000,0.000000,0.000000,0.115328,0.000000,0.773509,-0.010027,0.000000,0.000000,0.115315,0.585131
1622730202.588,,,1.640818,0.048465,0.000000,0.000000,0.000000,0.000000,0.125505,0.000000,0.770573,-0.010176,0.000000,0.000000,0.126934,0.603381
1622730202.607,,,1.654788,0.050842,0.000000,0.000000,0.000000,0.000000,0.141412,0.000000,0.767655,-0.010367,0.000000,0.000000,0.139874,0.620473
1622730202.608,0.255338,,,,,,,,,,,,,,,
1622730202.609,,0.265481,,,,,,,,,,,,,,
1622730202.635,,,1.663681,0.052487,0.000000,0.000000,0.000000,0.000000,0.147148,0.000000,0.765702,-0.010493,0.000000,0.000000,0.148473,0.629938
1622730202.642,0.272921,,,,,,,,,,,,,,,
1622730202.643,,0.263055,,,,,,,,,,,,,,
1622730202.658,,,1.689418,0.057075,0.000000,0.000000,0.000000,0.000000,0.172629,0.000000,0.759282,-0.012329,0.000000,0.000000,0.173244,0.656783
1622730202.681,,,1.702005,0.059928,0.000000,0.000000,0.000000,0.000000,0.179507,0.000000,0.758675,-0.013256,0.000000,0.000000,0.185605,0.665085
1622730202.686,0.276121,,,,,,,,,,,,,,,
1622730202.686,,0.262014,,,,,,,,,,,,,,
1622730202.702,,,1.717470,0.063705,0.000000,0.000000,0.000000,0.000000,0.193745,0.000000,0.757049,-0.014631,0.000000,0.000000,0.200702,0.673905
1622730202.716,,,1.732292,0.067429,0.000000,0.000000,0.000000,0.000000,0.216405,0.000000,0.755590,-0.016159,0.000000,0.000000,0.215524,0.680909
1622730202.724,0.306384,,,,,,,,,,,,,,,
1622730202.725,,0.258682,,,,,,,,,,,,,,
1622730202.733,,,1.741855,0.069928,0.000000,0.000000,0.000000,0.000000,0.224086,0.000000,0.755118,-0.017231,0.000000,0.000000,0.225039,0.684540
1622730202.744,,,1.753082,0.072962,0.000000,0.000000,0.000000,0.000000,0.238915,0.000000,0.756637,-0.018448,0.000000,0.000000,0.236531,0.687149
1622730202.755,,,1.760845,0.075277,0.000000,0.000000,0.000000,0.000000,0.246275,0.000000,0.758485,-0.019296,0.000000,0.000000,0.244213,0.688760
1622730202.767,0.310371,,,,,,,,,,,,,,,
1622730202.771,,0.258541,,,,,,,,,,,,,,
1622730202.772,,,1.768816,0.077710,0.000000,0.000000,0.000000,0.000000,0.261468,0.000000,0.759763,-0.020116,0.000000,0.000000,0.252287,0.690405
1622730202.788,,,1.780941,0.081503,0.000000,0.000000,0.000000,0.000000,0.269318,0.000000,0.762125,-0.021287,0.000000,0.000000,0.264732,0.693272
1622730202.802,,,1.791180,0.084679,0.000000,0.000000,0.000000,0.000000,0.285253,0.000000,0.763637,-0.022565,0.000000,0.000000,0.275060,0.695301
1622730202.807,0.298465,,,,,,,,,,,,,,,
1622730202.807,,0.260247,,,,,,,,,,,,,,
1622730202.816,,,1.801292,0.087911,0.000000,0.000000,0.000000,0.000000,0.299859,0.000000,0.765623,-0.023738,0.000000,0.000000,0.285491,0.697016
1622730202.828,,,1.811571,0.091298,0.000000,0.000000,0.000000,0.000000,0.306886,0.000000,0.766450,-0.024813,0.000000,0.000000,0.296219,0.698990
1622730202.838,0.276224,,,,,,,,,,,,,,,
1622730202.841,,0.262119,,,,,,,,,,,,,,
1622730202.841,,,1.819483,0.093987,0.000000,0.000000,0.000000,0.000000,0.322262,0.000000,0.768128,-0.025574,0.000000,0.000000,0.304681,0.700722
1622730202.852,,,1.827722,0.096860,0.000000,0.000000,0.000000,0.000000,0.330066,0.000000,0.768089,-0.026293,0.000000,0.000000,0.313615,0.703080
1622730202.870,0.256622,,,,,,,,,,,,,,,
1622730202.871,,,1.835898,0.099788,0.000000,0.000000,0.000000,0.000000,0.345677,0.000000,0.768203,-0.026953,0.000000,0.000000,0.322719,0.705224
1622730202.871,,0.263256,,,,,,,,,,,,,,
1622730202.886,,,1.848206,0.104557,0.000000,0.000000,0.000000,0.000000,0.353859,0.000000,0.767387,-0.027853,0.000000,0.000000,0.336147,0.708709
1622730202.896,,,1.858103,0.108531,0.000000,0.000000,0.000000,0.000000,0.370336,0.000000,0.766941,-0.028665,0.000000,0.000000,0.346902,0.711218
1622730202.907,0.256537,,,,,,,,,,,,,,,
1622730202.908,,0.261423,,,,,,,,,,,,,,
1622730202.918,,,1.864574,0.111204,0.000000,0.000000,0.000000,0.000000,0.370336,0.000000,0.766672,-0.029145,0.000000,0.000000,0.353984,0.712675
1622730202.927,,,1.878931,0.117247,0.000000,0.000000,0.000000,0.000000,0.396124,0.000000,0.765610,-0.030175,0.000000,0.000000,0.370330,0.715563
1622730202.938,,,1.885440,0.120109,0.000000,0.000000,0.000000,0.000000,0.405163,0.000000,0.765214,-0.030562,0.000000,0.000000,0.377913,0.716756
1622730202.940,0.260509,,,,,,,,,,,,,,,
1622730202.942,,0.259474,,,,,,,,,,,,,,
1622730202.951,,,1.892014,0.123058,0.000000,0.000000,0.000000,0.000000,0.414182,0.000000,0.765383,-0.030921,0.000000,0.000000,0.385696,0.717855
1622730202.961,,,1.900432,0.127134,0.000000,0.000000,0.000000,0.000000,0.423346,0.000000,0.765012,-0.031328,0.000000,0.000000,0.395383,0.718680
1622730202.971,,,1.906638,0.130211,0.000000,0.000000,0.000000,0.000000,0.432139,0.000000,0.764813,-0.031587,0.000000,0.000000,0.402643,0.719080
1622730202.977,0.268209,,,,,,,,,,,,,,,
1622730202.978,,0.255523,,,,,,,,,,,,,,
1622730202.989,,,1.913431,0.133641,0.000000,0.000000,0.000000,0.000000,0.440891,0.000000,0.764601,-0.031837,0.000000,0.000000,0.410711,0.719328
1622730203.008,,,1.925059,0.139578,0.000000,0.000000,0.000000,0.000000,0.458351,0.000000,0.764949,-0.032539,0.000000,0.000000,0.424295,0.718433
1622730203.017,0.269742,,,,,,,,,,,,,,,
1622730203.018,,0.252092,,,,,,,,,,,,,,
1622730203.018,,,1.934520,0.144564,0.000000,0.000000,0.000000,0.000000,0.477031,0.000000,0.765195,-0.033010,0.000000,0.000000,0.435666,0.718409
1622730203.032,,,1.944014,0.149798,0.000000,0.000000,0.000000,0.000000,0.486735,0.000000,0.765101,-0.033542,0.000000,0.000000,0.446754,0.717916
1622730203.043,,,1.952678,0.154693,0.000000,0.000000,0.000000,0.000000,0.505962,0.000000,0.765584,-0.033961,0.000000,0.000000,0.457163,0.717301
1622730203.055,,,1.961208,0.159641,0.000000,0.000000,0.000000,0.000000,0.515560,0.000000,0.765970,-0.034464,0.000000,0.000000,0.467020,0.716803
1622730203.058,0.269695,,,,,,,,,,,,,,,
1622730203.059,,0.247604,,,,,,,,,,,,,,
1622730203.067,,,1.968898,0.164194,0.000000,0.000000,0.000000,0.000000,0.524970,0.000000,0.765846,-0.034865,0.000000,0.000000,0.476044,0.716246
1622730203.084,,,1.976225,0.168616,0.000000,0.000000,0.000000,0.000000,0.534323,0.000000,0.765746,-0.035256,0.000000,0.000000,0.484777,0.714832
1622730203.089,0.267299,,,,,,,,,,,,,,,
1622730203.091,,0.244492,,,,,,,,,,,,,,
1622730203.100,,,1.987067,0.175280,0.000000,0.000000,0.000000,0.000000,0.552874,0.000000,0.766342,-0.035765,0.000000,0.000000,0.498033,0.712627
1622730203.113,,,1.997611,0.182071,0.000000,0.000000,0.000000,0.000000,0.570845,0.000000,0.766768,-0.036199,0.000000,0.000000,0.510853,0.709672
1622730203.123,,,2.005355,0.187192,0.000000,0.000000,0.000000,0.000000,0.579815,0.000000,0.767161,-0.036444,0.000000,0.000000,0.520398,0.707907
1622730203.125,,0.242856,,,,,,,,,,,,,,
1622730203.126,0.268763,,,,,,,,,,,,,,,
1622730203.137,,,2.012314,0.191887,0.000000,0.000000,0.000000,0.000000,0.589038,0.000000,0.767506,-0.036623,0.000000,0.000000,0.529097,0.706459
1622730203.149,,,2.020110,0.197243,0.000000,0.000000,0.000000,0.000000,0.598552,0.000000,0.768652,-0.036810,0.000000,0.000000,0.538985,0.704947
1622730203.160,,,2.027765,0.202614,0.000000,0.000000,0.000000,0.000000,0.608175,0.000000,0.769155,-0.036956,0.000000,0.000000,0.548843,0.703659
1622730203.166,0.264868,,,,,,,,,,,,,,,
1622730203.167,,0.238697,,,,,,,,,,,,,,
1622730203.173,,,2.033905,0.207015,0.000000,0.000000,0.000000,0.000000,0.627192,0.000000,0.769257,-0.037042,0.000000,0.000000,0.556975,0.702732
1622730203.191,,,2.042182,0.213058,0.000000,0.000000,0.000000,0.000000,0.636623,0.000000,0.769207,-0.037277,0.000000,0.000000,0.567590,0.700419
1622730203.200,,,2.052905,0.221012,0.000000,0.000000,0.000000,0.000000,0.655819,0.000000,0.769062,-0.037653,0.000000,0.000000,0.581123,0.698007
1622730203.204,0.258413,,,,,,,,,,,,,,,
1622730203.205,,0.234516,,,,,,,,,,,,,,
1622730203.214,,,2.059016,0.225669,0.000000,0.000000,0.000000,0.000000,0.665417,0.000000,0.768899,-0.037816,0.000000,0.000000,0.588974,0.696756
1622730203.227,,,2.066711,0.231625,0.000000,0.000000,0.000000,0.000000,0.674994,0.000000,0.768744,-0.038048,0.000000,0.000000,0.599014,0.694294
1622730203.237,,,2.074878,0.238077,0.000000,0.000000,0.000000,0.000000,0.684190,0.000000,0.768475,-0.038238,0.000000,0.000000,0.609832,0.691474
1622730203.246,0.260553,,,,,,,,,,,,,,,
1622730203.247,,0.229335,,,,,,,,,,,,,,
1622730203.255,,,2.080144,0.242332,0.000000,0.000000,0.000000,0.000000,0.693326,0.000000,0.768083,-0.038321,0.000000,0.000000,0.616922,0.689784
1622730203.268,,,2.090824,0.251121,0.000000,0.000000,0.000000,0.000000,0.712109,0.000000,0.767599,-0.038595,0.000000,0.000000,0.630974,0.685724
1622730203.278,0.264311,,,,,,,,,,,,,,,
1622730203.278,,0.225268,,,,,,,,,,,,,,
1622730203.282,,,2.099398,0.258562,0.000000,0.000000,0.000000,0.000000,0.721972,0.000000,0.767745,-0.038597,0.000000,0.000000,0.642044,0.682863
1622730203.293,,,2.106494,0.264855,0.000000,0.000000,0.000000,0.000000,0.741073,0.000000,0.767583,-0.038612,0.000000,0.000000,0.651474,0.679648
1622730203.308,,,2.112438,0.270225,0.000000,0.000000,0.000000,0.000000,0.750187,0.000000,0.767898,-0.038594,0.000000,0.000000,0.659487,0.676990
1622730203.317,0.268802,,,,,,,,,,,,,,,
1622730203.318,,0.222335,,,,,,,,,,,,,,
1622730203.324,,,2.122110,0.278938,0.000000,0.000000,0.000000,0.000000,0.759145,0.000000,0.768007,-0.038720,0.000000,0.000000,0.672069,0.672700
1622730203.336,,,2.131271,0.287392,0.000000,0.000000,0.000000,0.000000,0.776607,0.000000,0.768337,-0.038822,0.000000,0.000000,0.684303,0.667972
1622730203.348,,,2.138360,0.294092,0.000000,0.000000,0.000000,0.000000,0.785289,0.000000,0.768418,-0.038848,0.000000,0.000000,0.693910,0.664670
1622730203.362,,,2.144899,0.300388,0.000000,0.000000,0.000000,0.000000,0.793824,0.000000,0.768903,-0.038842,0.000000,0.000000,0.702896,0.661685
1622730203.364,0.268866,,,,,,,,,,,,,,,
1622730203.365,,0.218989,,,,,,,,,,,,,,
1622730203.378,,,2.152805,0.308141,0.000000,0.000000,0.000000,0.000000,0.809910,0.000000,0.768884,-0.038801,0.000000,0.000000,0.714028,0.657959
1622730203.394,0.266345,,,,,,,,,,,,,,,
1622730203.396,,0.215454,,,,,,,,,,,,,,
1622730203.397,,,2.165012,0.320361,0.000000,0.000000,0.000000,0.000000,0.825843,0.000000,0.768799,-0.038776,0.000000,0.000000,0.730751,0.651634
1622730203.409,,,2.173020,0.328904,0.000000,0.000000,0.000000,0.000000,0.833886,0.000000,0.768791,-0.038495,0.000000,0.000000,0.741528,0.647404
1622730203.422,,,2.179136,0.335568,0.000000,0.000000,0.000000,0.000000,0.842265,0.000000,0.769014,-0.038255,0.000000,0.000000,0.749888,0.644595
1622730203.431,0.267691,,,,,,,,,,,,,,,
1622730203.432,,0.212928,,,,,,,,,,,,,,
1622730203.441,,,2.185944,0.343111,0.000000,0.000000,0.000000,0.000000,0.850939,0.000000,0.768624,-0.037971,0.000000,0.000000,0.759346,0.641685
1622730203.450,,,2.195934,0.354453,0.000000,0.000000,0.000000,0.000000,0.875509,0.000000,0.768330,-0.037492,0.000000,0.000000,0.773204,0.636747
1622730203.461,,,2.201385,0.360815,0.000000,0.000000,0.000000,0.000000,0.882995,0.000000,0.768213,-0.037210,0.000000,0.000000,0.780898,0.634037
1622730203.470,,,2.206521,0.366904,0.000000,0.000000,0.000000,0.000000,0.890486,0.000000,0.768303,-0.036936,0.000000,0.000000,0.788253,0.631492
1622730203.477,0.267248,,,,,,,,,,,,,,,
1622730203.480,,0.212211,,,,,,,,,,,,,,
1622730203.484,,,2.211616,0.373037,0.000000,0.000000,0.000000,0.000000,0.890486,0.000000,0.769111,-0.036663,0.000000,0.000000,0.795579,0.629254
1622730203.493,,,2.217824,0.380708,0.000000,0.000000,0.000000,0.000000,0.898114,0.000000,0.769004,-0.036217,0.000000,0.000000,0.804291,0.626845
1622730203.504,,,2.223223,0.387502,0.000000,0.000000,0.000000,0.000000,0.906044,0.000000,0.768989,-0.035830,0.000000,0.000000,0.812002,0.624888
1622730203.516,,,2.228231,0.393905,0.000000,0.000000,0.000000,0.000000,0.914058,0.000000,0.768916,-0.035473,0.000000,0.000000,0.819280,0.623323
1622730203.529,,,2.234187,0.401637,0.000000,0.000000,0.000000,0.000000,0.930712,0.000000,0.769451,-0.035058,0.000000,0.000000,0.828189,0.621733
1622730203.535,0.270669,,,,,,,,,,,,,,,
1622730203.536,,0.209303,,,,,,,,,,,,,,
1622730203.542,,,2.240867,0.410448,0.000000,0.000000,0.000000,0.000000,0.938815,0.000000,0.769390,-0.034558,0.000000,0.000000,0.837884,0.620012
1622730203.558,,,2.247860,0.419860,0.000000,0.000000,0.000000,0.000000,0.954317,0.000000,0.769458,-0.034096,0.000000,0.000000,0.848345,0.617200
1622730203.570,,,2.255011,0.429701,0.000000,0.000000,0.000000,0.000000,0.961962,0.000000,0.769212,-0.033632,0.000000,0.000000,0.859255,0.614358
1622730203.573,0.266989,,,,,,,,,,,,,,,
1622730203.574,,0.206897,,,,,,,,,,,,,,
1622730203.587,,,2.260841,0.437916,0.000000,0.000000,0.000000,0.000000,0.976972,0.000000,0.769076,-0.033261,0.000000,0.000000,0.868429,0.612222
1622730203.597,,,2.268485,0.449066,0.000000,0.000000,0.000000,0.000000,0.984246,0.000000,0.768646,-0.032605,0.000000,0.000000,0.880350,0.608735
1622730203.609,,,2.273084,0.455953,0.000000,0.000000,0.000000,0.000000,0.991227,0.000000,0.768602,-0.032221,0.000000,0.000000,0.887677,0.606669
1622730203.614,0.267870,,,,,,,,,,,,,,,
1622730203.615,,0.205152,,,,,,,,,,,,,,
1622730203.625,,,2.278193,0.463732,0.000000,0.000000,0.000000,0.000000,0.997826,0.000000,0.768578,-0.031805,0.000000,0.000000,0.895954,0.604344
1622730203.636,,,2.285413,0.474733,0.000000,0.000000,0.000000,0.000000,1.011911,0.000000,0.767700,-0.031298,0.000000,0.000000,0.907421,0.601348
1622730203.646,,,2.289876,0.481709,0.000000,0.000000,0.000000,0.000000,1.019091,0.000000,0.767969,-0.030999,0.000000,0.000000,0.914672,0.599616
1622730203.655,0.270587,,,,,,,,,,,,,,,
1622730203.656,,0.203193,,,,,,,,,,,,,,
1622730203.662,,,2.294850,0.489613,0.000000,0.000000,0.000000,0.000000,1.026532,0.000000,0.767558,-0.030679,0.000000,0.000000,0.922911,0.597972
1622730203.674,,,2.301422,0.500256,0.000000,0.000000,0.000000,0.000000,1.040686,0.000000,0.767268,-0.030313,0.000000,0.000000,0.934131,0.595128
1622730203.686,0.273417,,,,,,,,,,,,,,,
1622730203.687,,0.202208,,,,,,,,,,,,,,
1622730203.691,,,2.306024,0.507908,0.000000,0.000000,0.000000,0.000000,1.040686,0.000000,0.767186,-0.030075,0.000000,0.000000,0.942097,0.592978
1622730203.704,,,2.314110,0.521906,0.000000,0.000000,0.000000,0.000000,1.061655,0.000000,0.767736,-0.029020,0.000000,0.000000,0.955466,0.589636
1622730203.718,,,2.318546,0.529833,0.000000,0.000000,0.000000,0.000000,1.068894,0.000000,0.767497,-0.028483,0.000000,0.000000,0.963007,0.588183
1622730203.728,,,2.324538,0.540647,0.000000,0.000000,0.000000,0.000000,1.075980,0.000000,0.767227,-0.027722,0.000000,0.000000,0.972997,0.586397
1622730203.740,,,2.328718,0.548373,0.000000,0.000000,0.000000,0.000000,1.083057,0.000000,0.767746,-0.027231,0.000000,0.000000,0.980139,0.585242
1622730203.750,0.276109,,,,,,,,,,,,,,,
1622730203.751,,0.200915,,,,,,,,,,,,,,
1622730203.754,,,2.333793,0.557917,0.000000,0.000000,0.000000,0.000000,1.097562,0.000000,0.767420,-0.026670,0.000000,0.000000,0.989087,0.583958
1622730203.764,,,2.338854,0.567705,0.000000,0.000000,0.000000,0.000000,1.104890,0.000000,0.767338,-0.026047,0.000000,0.000000,0.998072,0.582468
1622730203.777,,,2.342732,0.575375,0.000000,0.000000,0.000000,0.000000,1.112206,0.000000,0.767445,-0.025607,0.000000,0.000000,1.005130,0.581407
1622730203.790,,,2.347745,0.585470,0.000000,0.000000,0.000000,0.000000,1.119598,0.000000,0.767140,-0.025076,0.000000,0.000000,1.014465,0.580308
1622730203.794,0.274256,,,,,,,,,,,,,,,
1622730203.794,,0.202102,,,,,,,,,,,,,,
1622730203.804,,,2.352107,0.594467,0.000000,0.000000,0.000000,0.000000,1.127002,0.000000,0.767200,-0.024663,0.000000,0.000000,1.022813,0.579409
1622730203.815,,,2.357144,0.605088,0.000000,0.000000,0.000000,0.000000,1.141238,0.000000,0.767054,-0.024222,0.000000,0.000000,1.032801,0.578364
1622730203.828,0.275918,,,,,,,,,,,,,,,
1622730203.828,,0.202427,,,,,,,,,,,,,,
1622730203.829,,,2.360933,0.613294,0.000000,0.000000,0.000000,0.000000,1.147758,0.000000,0.766803,-0.023939,0.000000,0.000000,1.040531,0.577325
1622730203.844,,,2.365912,0.624729,0.000000,0.000000,0.000000,0.000000,1.154342,0.000000,0.766699,-0.023052,0.000000,0.000000,1.050638,0.576150
1622730203.855,,,2.370817,0.636329,0.000000,0.000000,0.000000,0.000000,1.167290,0.000000,0.766848,-0.022259,0.000000,0.000000,1.061004,0.575088
1622730203.862,0.277463,,,,,,,,,,,,,,,
1622730203.864,,0.201855,,,,,,,,,,,,,,
1622730203.877,,,2.374254,0.644706,0.000000,0.000000,0.000000,0.000000,1.173813,0.000000,0.767672,-0.021772,0.000000,0.000000,1.068499,0.574570
1622730203.890,,,2.381121,0.661496,0.000000,0.000000,0.000000,0.000000,1.186836,0.000000,0.768014,-0.020815,0.000000,0.000000,1.083306,0.573219
1622730203.900,,,2.384941,0.671492,0.000000,0.000000,0.000000,0.000000,1.193165,0.000000,0.768075,-0.020111,0.000000,0.000000,1.091811,0.572594
1622730203.909,0.277397,,,,,,,,,,,,,,,
1622730203.910,,0.201856,,,,,,,,,,,,,,
1622730203.913,,,2.388230,0.680330,0.000000,0.000000,0.000000,0.000000,1.205612,0.000000,0.767774,-0.019563,0.000000,0.000000,1.099426,0.571949
1622730203.924,,,2.391896,0.690426,0.000000,0.000000,0.000000,0.000000,1.205612,0.000000,0.767545,-0.019009,0.000000,0.000000,1.108084,0.571260
1622730203.938,,,2.394850,0.698796,0.000000,0.000000,0.000000,0.000000,1.205612,0.000000,0.767376,-0.018619,0.000000,0.000000,1.115228,0.571030
1622730203.949,0.272296,,,,,,,,,,,,,,,
1622730203.950,,,2.398398,0.708869,0.000000,0.000000,0.000000,0.000000,1.225420,0.000000,0.767306,-0.018090,0.000000,0.000000,1.123738,0.570952
1622730203.950,,0.202445,,,,,,,,,,,,,,
1622730203.961,,,2.401768,0.718705,0.000000,0.000000,0.000000,0.000000,1.232414,0.000000,0.767825,-0.017656,0.000000,0.000000,1.132095,0.571021
1622730203.979,,,2.405585,0.730162,0.000000,0.000000,0.000000,0.000000,1.246268,0.000000,0.767436,-0.017250,0.000000,0.000000,1.141987,0.571143
1622730203.981,,0.202881,,,,,,,,,,,,,,
1622730203.982,0.275234,,,,,,,,,,,,,,,
1622730203.992,,,2.410298,0.744957,0.000000,0.000000,0.000000,0.000000,1.259909,0.000000,0.767453,-0.016373,0.000000,0.000000,1.154340,0.571399
1622730204.010,,,2.412848,0.753329,0.000000,0.000000,0.000000,0.000000,1.266730,0.000000,0.767867,-0.015996,0.000000,0.000000,1.161360,0.571541
1622730204.012,0.274783,,,,,,,,,,,,,,,
1622730204.013,,0.203250,,,,,,,,,,,,,,
1622730204.024,,,2.417202,0.767993,0.000000,0.000000,0.000000,0.000000,1.273793,0.000000,0.767260,-0.015446,0.000000,0.000000,1.173750,0.572073
1622730204.037,,,2.420345,0.779301,0.000000,0.000000,0.000000,0.000000,1.288329,0.000000,0.767001,-0.014869,0.000000,0.000000,1.183158,0.572676
1622730204.046,0.273053,,,,,,,,,,,,,,,
1622730204.047,,0.204059,,,,,,,,,,,,,,
1622730204.058,,,2.423423,0.790804,0.000000,0.000000,0.000000,0.000000,1.295575,0.000000,0.767157,-0.014412,0.000000,0.000000,1.192799,0.573034
1622730204.070,,,2.426760,0.803785,0.000000,0.000000,0.000000,0.000000,1.309873,0.000000,0.766725,-0.014022,0.000000,0.000000,1.203865,0.573441
1622730204.080,,,2.429797,0.816238,0.000000,0.000000,0.000000,0.000000,1.316855,0.000000,0.766650,-0.013493,0.000000,0.000000,1.214193,0.573757
1622730204.082,0.276521,,,,,,,,,,,,,,,
1622730204.083,,0.204137,,,,,,,,,,,,,,
1622730204.091,,,2.431787,0.824784,0.000000,0.000000,0.000000,0.000000,1.323844,0.000000,0.767341,-0.013237,0.000000,0.000000,1.221324,0.573956
1622730204.106,,,2.434075,0.834935,0.000000,0.000000,0.000000,0.000000,1.337550,0.000000,0.768315,-0.013019,0.000000,0.000000,1.229934,0.574070
1622730204.113,0.278134,,,,,,,,,,,,,,,
1622730204.115,,0.204364,,,,,,,,,,,,,,
1622730204.119,,,2.436605,0.846541,0.000000,0.000000,0.000000,0.000000,1.344369,0.000000,0.768475,-0.012572,0.000000,0.000000,1.239456,0.574256
1622730204.135,,,2.438829,0.857228,0.000000,0.000000,0.000000,0.000000,1.351015,0.000000,0.768253,-0.012274,0.000000,0.000000,1.248282,0.574485
1622730204.146,,,2.441506,0.870688,0.000000,0.000000,0.000000,0.000000,1.363887,0.000000,0.769462,-0.012044,0.000000,0.000000,1.259564,0.574285
1622730204.146,0.271714,,,,,,,,,,,,,,,
1622730204.147,,0.204716,,,,,,,,,,,,,,
1622730204.159,,,2.443134,0.879376,0.000000,0.000000,0.000000,0.000000,1.369871,0.000000,0.769193,-0.012001,0.000000,0.000000,1.266872,0.574160
1622730204.169,,,2.444953,0.889493,0.000000,0.000000,0.000000,0.000000,1.375991,0.000000,0.769057,-0.012028,0.000000,0.000000,1.275440,0.574182
1622730204.180,,,2.446330,0.897536,0.000000,0.000000,0.000000,0.000000,1.382311,0.000000,0.769381,-0.012125,0.000000,0.000000,1.282295,0.574330
1622730204.180,,0.205986,,,,,,,,,,,,,,
1622730204.182,0.267336,,,,,,,,,,,,,,,
1622730204.194,,,2.448124,0.908656,0.000000,0.000000,0.000000,0.000000,1.389054,0.000000,0.768850,-0.011976,0.000000,0.000000,1.291521,0.575038
1622730204.208,,,2.449535,0.917948,0.000000,0.000000,0.000000,0.000000,1.403062,0.000000,0.768230,-0.011951,0.000000,0.000000,1.299380,0.575551
1622730204.216,0.268035,,,,,,,,,,,,,,,
1622730204.218,,0.205971,,,,,,,,,,,,,,
1622730204.226,,,2.451259,0.929975,0.000000,0.000000,0.000000,0.000000,1.410168,0.000000,0.767585,-0.011656,0.000000,0.000000,1.309272,0.576498
1622730204.245,,,2.453208,0.944604,0.000000,0.000000,0.000000,0.000000,1.424458,0.000000,0.768393,-0.011486,0.000000,0.000000,1.321532,0.577247
1622730204.248,0.272763,,,,,,,,,,,,,,,
1622730204.249,,0.205796,,,,,,,,,,,,,,
1622730204.261,,,2.455108,0.960630,0.000000,0.000000,0.000000,0.000000,1.438489,0.000000,0.767880,-0.010893,0.000000,0.000000,1.334579,0.578274
1622730204.279,0.272291,,,,,,,,,,,,,,,
1622730204.279,,0.206175,,,,,,,,,,,,,,
1622730204.281,,,2.456515,0.974013,0.000000,0.000000,0.000000,0.000000,1.452967,0.000000,0.768323,-0.010632,0.000000,0.000000,1.345682,0.578950
1622730204.290,,,2.458031,0.989353,0.000000,0.000000,0.000000,0.000000,1.460255,0.000000,0.767710,-0.010231,0.000000,0.000000,1.358138,0.579671
1622730204.304,,,2.458849,0.998840,0.000000,0.000000,0.000000,0.000000,1.467570,0.000000,0.767618,-0.010130,0.000000,0.000000,1.365912,0.580117
1622730204.313,,,2.459502,1.007151,0.000000,0.000000,0.000000,0.000000,1.474835,0.000000,0.767172,-0.010121,0.000000,0.000000,1.372789,0.580615
1622730204.321,,,2.460264,1.017766,0.000000,0.000000,0.000000,0.000000,1.489918,0.000000,0.767435,-0.010202,0.000000,0.000000,1.381755,0.581180
1622730204.326,0.272880,,,,,,,,,,,,,,,
1622730204.327,,0.206308,,,,,,,,,,,,,,
1622730204.336,,,2.460703,1.024723,0.000000,0.000000,0.000000,0.000000,1.497698,0.000000,0.767246,-0.010331,0.000000,0.000000,1.387692,0.581529
1622730204.349,,,2.461398,1.036848,0.000000,0.000000,0.000000,0.000000,1.505482,0.000000,0.767271,-0.010639,0.000000,0.000000,1.398148,0.582538
1622730204.363,0.276548,,,,,,,,,,,,,,,
1622730204.364,,0.208034,,,,,,,,,,,,,,
1622730204.370,,,2.461839,1.047247,0.000000,0.000000,0.000000,0.000000,1.513281,0.000000,0.768100,-0.010591,0.000000,0.000000,1.406832,0.583108
1622730204.381,,,2.462435,1.064903,0.000000,0.000000,0.000000,0.000000,1.528021,0.000000,0.768509,-0.010061,0.000000,0.000000,1.421298,0.583851
1622730204.394,0.277843,,,,,,,,,,,,,,,
1622730204.395,,0.207474,,,,,,,,,,,,,,
1622730204.400,,,2.462634,1.075196,0.000000,0.000000,0.000000,0.000000,1.541325,0.000000,0.768710,-0.009961,0.000000,0.000000,1.429871,0.584093
1622730204.411,,,2.462799,1.090076,0.000000,0.000000,0.000000,0.000000,1.548136,0.000000,0.769324,-0.009997,0.000000,0.000000,1.442367,0.584499
1622730204.426,0.272681,,,,,,,,,,,,,,,
1622730204.427,,0.208711,,,,,,,,,,,,,,
1622730204.434,,,2.462807,1.102798,0.000000,0.000000,0.000000,0.000000,1.562535,0.000000,0.769462,-0.009814,0.000000,0.000000,1.452860,0.585045
1622730204.451,,,2.462645,1.119660,0.000000,0.000000,0.000000,0.000000,1.569727,0.000000,0.768571,-0.009784,0.000000,0.000000,1.466899,0.585898
1622730204.458,0.268157,,,,,,,,,,,,,,,
1622730204.460,,0.209263,,,,,,,,,,,,,,
1622730204.469,,,2.462297,1.134492,0.000000,0.000000,0.000000,0.000000,1.583837,0.000000,0.768357,-0.010032,0.000000,0.000000,1.479493,0.586473
1622730204.481,,,2.461836,1.147467,0.000000,0.000000,0.000000,0.000000,1.597972,0.000000,0.767907,-0.010450,0.000000,0.000000,1.490726,0.587055
1622730204.497,,,2.461354,1.157871,0.000000,0.000000,0.000000,0.000000,1.605163,0.000000,0.768352,-0.010932,0.000000,0.000000,1.499821,0.587614
1622730204.500,0.268702,,,,,,,,,,,,,,,
1622730204.501,,0.210321,,,,,,,,,,,,,,
1622730204.515,,,2.460668,1.170373,0.000000,0.000000,0.000000,0.000000,1.619773,0.000000,0.768395,-0.011654,0.000000,0.000000,1.510969,0.588252
1622730204.531,,,2.459723,1.184812,0.000000,0.000000,0.000000,0.000000,1.634377,0.000000,0.767854,-0.012656,0.000000,0.000000,1.524113,0.589254
1622730204.532,0.272822,,,,,,,,,,,,,,,
1622730204.533,,0.210151,,,,,,,,,,,,,,
1622730204.550,,,2.458713,1.197776,0.000000,0.000000,0.000000,0.000000,1.647941,0.000000,0.768393,-0.013760,0.000000,0.000000,1.536139,0.589686
1622730204.571,0.274767,,,,,,,,,,,,,,,
1622730204.573,,0.208866,,,,,,,,,,,,,,
1622730204.575,,,2.457625,1.209989,0.000000,0.000000,0.000000,0.000000,1.654709,0.000000,0.768480,-0.014967,0.000000,0.000000,1.547564,0.589839
1622730204.594,,,2.455646,1.229841,0.000000,0.000000,0.000000,0.000000,1.676854,0.000000,0.769790,-0.017213,0.000000,0.000000,1.566702,0.590495
1622730204.606,0.272510,,,,,,,,,,,,,,,
1622730204.607,,0.208216,,,,,,,,,,,,,,
1622730204.624,,,2.454022,1.243659,0.000000,0.000000,0.000000,0.000000,1.692551,0.000000,0.769639,-0.019062,0.000000,0.000000,1.580301,0.591452
1622730204.636,,,2.451900,1.259941,0.000000,0.000000,0.000000,0.000000,1.708094,0.000000,0.769024,-0.019832,0.000000,0.000000,1.595647,0.592046
1622730204.643,0.268433,,,,,,,,,,,,,,,
1622730204.644,,0.205413,,,,,,,,,,,,,,
1622730204.652,,,2.450015,1.272994,0.000000,0.000000,0.000000,0.000000,1.715168,0.000000,0.769084,-0.020205,0.000000,0.000000,1.608076,0.591897
1622730204.664,,,2.447888,1.286591,0.000000,0.000000,0.000000,0.000000,1.729339,0.000000,0.768267,-0.020447,0.000000,0.000000,1.621277,0.590546
1622730204.675,0.271814,,,,,,,,,,,,,,,
1622730204.675,,0.201971,,,,,,,,,,,,,,
1622730204.677,,,2.446423,1.295103,0.000000,0.000000,0.000000,0.000000,1.736390,0.000000,0.768521,-0.020586,0.000000,0.000000,1.629425,0.589604
1622730204.695,,,2.444138,1.307785,0.000000,0.000000,0.000000,0.000000,1.750284,0.000000,0.768674,-0.021150,0.000000,0.000000,1.641178,0.588386
1622730204.707,0.274393,,,,,,,,,,,,,,,
1622730204.708,,0.198530,,,,,,,,,,,,,,
1622730204.727,,,2.442021,1.318869,0.000000,0.000000,0.000000,0.000000,1.750284,0.000000,0.768619,-0.021531,0.000000,0.000000,1.651435,0.586705
1622730204.738,0.273860,,,,,,,,,,,,,,,
1622730204.740,,0.198487,,,,,,,,,,,,,,
1622730204.741,,,2.436691,1.345489,0.000000,0.000000,0.000000,0.000000,1.787447,0.000000,0.768680,-0.023918,0.000000,0.000000,1.675111,0.582162
1622730204.751,,,2.434388,1.355983,0.000000,0.000000,0.000000,0.000000,1.803488,0.000000,0.768717,-0.024491,0.000000,0.000000,1.684602,0.580883
1622730204.766,,,2.432640,1.363654,0.000000,0.000000,0.000000,0.000000,1.811262,0.000000,0.769237,-0.024820,0.000000,0.000000,1.691601,0.580020
1622730204.771,0.273873,,,,,,,,,,,,,,,
1622730204.772,,0.200307,,,,,,,,,,,,,,
1622730204.780,,,2.429752,1.375576,0.000000,0.000000,0.000000,0.000000,1.818889,0.000000,0.768999,-0.025361,0.000000,0.000000,1.702286,0.578412
1622730204.791,,,2.427240,1.385548,0.000000,0.000000,0.000000,0.000000,1.826385,0.000000,0.768848,-0.025654,0.000000,0.000000,1.711305,0.577600
1622730204.801,0.271760,,,,,,,,,,,,,,,
1622730204.802,,0.200714,,,,,,,,,,,,,,
1622730204.805,,,2.425010,1.394119,0.000000,0.000000,0.000000,0.000000,1.833760,0.000000,0.769371,-0.025819,0.000000,0.000000,1.719131,0.576946
1622730204.817,,,2.422159,1.404762,0.000000,0.000000,0.000000,0.000000,1.849404,0.000000,0.769141,-0.025929,0.000000,0.000000,1.729065,0.576523
1622730204.827,,,2.419537,1.414246,0.000000,0.000000,0.000000,0.000000,1.857401,0.000000,0.768865,-0.026193,0.000000,0.000000,1.737681,0.576346
1622730204.833,0.273319,,,,,,,,,,,,,,,
1622730204.835,,0.201354,,,,,,,,,,,,,,
1622730204.847,,,2.416477,1.424998,0.000000,0.000000,0.000000,0.000000,1.865384,0.000000,0.768553,-0.026394,0.000000,0.000000,1.747570,0.576136
1622730204.858,,,2.413226,1.436039,0.000000,0.000000,0.000000,0.000000,1.881007,0.000000,0.768273,-0.026479,0.000000,0.000000,1.757962,0.575883
1622730204.870,0.273615,,,,,,,,,,,,,,,
1622730204.870,,0.201225,,,,,,,,,,,,,,
1622730204.872,,,2.410135,1.446171,0.000000,0.000000,0.000000,0.000000,1.888510,0.000000,0.768039,-0.026818,0.000000,0.000000,1.767088,0.575485
1622730204.886,,,2.407014,1.456121,0.000000,0.000000,0.000000,0.000000,1.896007,0.000000,0.767889,-0.027058,0.000000,0.000000,1.776153,0.575074
1622730204.895,,,2.403599,1.466713,0.000000,0.000000,0.000000,0.000000,1.911209,0.000000,0.768587,-0.027221,0.000000,0.000000,1.786013,0.574657
1622730204.903,0.276915,,,,,,,,,,,,,,,
1622730204.903,,0.201032,,,,,,,,,,,,,,
1622730204.914,,,2.401217,1.473884,0.000000,0.000000,0.000000,0.000000,1.918443,0.000000,0.768602,-0.027267,0.000000,0.000000,1.792758,0.574166
1622730204.924,,,2.396604,1.487405,0.000000,0.000000,0.000000,0.000000,1.932195,0.000000,0.768958,-0.027439,0.000000,0.000000,1.805430,0.573006
1622730204.933,,,2.393745,1.495481,0.000000,0.000000,0.000000,0.000000,1.939064,0.000000,0.769595,-0.027449,0.000000,0.000000,1.813070,0.572408
1622730204.942,,,2.391247,1.502384,0.000000,0.000000,0.000000,0.000000,1.945799,0.000000,0.769689,-0.027411,0.000000,0.000000,1.819664,0.571960
1622730204.950,,0.202184,,,,,,,,,,,,,,
1622730204.950,0.274549,,,,,,,,,,,,,,,
1622730204.961,,,2.388411,1.510064,0.000000,0.000000,0.000000,0.000000,1.952397,0.000000,0.769702,-0.027326,0.000000,0.000000,1.827075,0.571496
1622730204.976,,,2.383282,1.523483,0.000000,0.000000,0.000000,0.000000,1.959241,0.000000,0.769416,-0.027432,0.000000,0.000000,1.839488,0.571399
1622730204.986,,,2.379167,1.533794,0.000000,0.000000,0.000000,0.000000,1.973713,0.000000,0.769085,-0.027610,0.000000,0.000000,1.848856,0.571498
1622730204.994,0.270492,,,,,,,,,,,,,,,
1622730204.994,,0.202701,,,,,,,,,,,,,,
1622730204.997,,,2.375895,1.541804,0.000000,0.000000,0.000000,0.000000,1.980958,0.000000,0.768831,-0.027685,0.000000,0.000000,1.856229,0.571549
1622730205.007,,,2.372333,1.550361,0.000000,0.000000,0.000000,0.000000,1.988178,0.000000,0.768482,-0.027708,0.000000,0.000000,1.864201,0.571693
1622730205.019,,,2.369229,1.557668,0.000000,0.000000,0.000000,0.000000,1.995401,0.000000,0.768331,-0.027684,0.000000,0.000000,1.871096,0.571790
1622730205.030,,,2.365399,1.566463,0.000000,0.000000,0.000000,0.000000,2.002375,0.000000,0.768466,-0.027706,0.000000,0.000000,1.879281,0.571727
1622730205.039,0.272683,,,,,,,,,,,,,,,
1622730205.040,,0.203674,,,,,,,,,,,,,,
1622730205.045,,,2.361750,1.574676,0.000000,0.000000,0.000000,0.000000,2.009583,0.000000,0.768638,-0.027678,0.000000,0.000000,1.887018,0.571832
1622730205.060,,,2.356134,1.587076,0.000000,0.000000,0.000000,0.000000,2.023956,0.000000,0.768686,-0.027552,0.000000,0.000000,1.898966,0.572296
1622730205.072,,,2.351310,1.597222,0.000000,0.000000,0.000000,0.000000,2.031028,0.000000,0.768614,-0.027507,0.000000,0.000000,1.908468,0.572440
1622730205.084,,,2.346843,1.606410,0.000000,0.000000,0.000000,0.000000,2.044468,0.000000,0.768139,-0.027408,0.000000,0.000000,1.917267,0.572385
1622730205.088,0.275718,,,,,,,,,,,,,,,
1622730205.090,,0.205078,,,,,,,,,,,,,,
1622730205.095,,,2.342374,1.615396,0.000000,0.000000,0.000000,0.000000,2.051199,0.000000,0.768038,-0.027426,0.000000,0.000000,1.925633,0.572311
1622730205.107,,,2.337560,1.625050,0.000000,0.000000,0.000000,0.000000,2.058061,0.000000,0.767743,-0.027697,0.000000,0.000000,1.934233,0.572550
1622730205.121,0.274162,,,,,,,,,,,,,,,
1622730205.122,,0.206305,,,,,,,,,,,,,,
1622730205.125,,,2.333451,1.633147,0.000000,0.000000,0.000000,0.000000,2.065274,0.000000,0.767497,-0.027873,0.000000,0.000000,1.941545,0.573004
1622730205.138,,,2.326135,1.647139,0.000000,0.000000,0.000000,0.000000,2.079904,0.000000,0.767269,-0.028160,0.000000,0.000000,1.954122,0.574333
1622730205.148,,,2.320254,1.658116,0.000000,0.000000,0.000000,0.000000,2.087361,0.000000,0.768128,-0.028311,0.000000,0.000000,1.964146,0.575239
1622730205.158,0.275527,,,,,,,,,,,,,,,
1622730205.158,,0.208498,,,,,,,,,,,,,,
1622730205.167,,,2.316049,1.665811,0.000000,0.000000,0.000000,0.000000,2.094697,0.000000,0.768719,-0.028381,0.000000,0.000000,1.971272,0.575857
1622730205.179,,,2.308177,1.680033,0.000000,0.000000,0.000000,0.000000,2.108607,0.000000,0.769158,-0.028652,0.000000,0.000000,1.984234,0.576918
1622730205.188,,,2.303271,1.688682,0.000000,0.000000,0.000000,0.000000,2.115447,0.000000,0.770065,-0.028763,0.000000,0.000000,1.992232,0.577508
1622730205.191,0.273871,,,,,,,,,,,,,,,
1622730205.192,,0.213548,,,,,,,,,,,,,,
1622730205.201,,,2.298648,1.696705,0.000000,0.000000,0.000000,0.000000,2.122304,0.000000,0.769932,-0.028835,0.000000,0.000000,1.999750,0.578065
1622730205.212,,,2.293173,1.706069,0.000000,0.000000,0.000000,0.000000,2.129403,0.000000,0.769672,-0.028814,0.000000,0.000000,2.008648,0.579997
1622730205.221,0.266350,,,,,,,,,,,,,,,
1622730205.223,,0.218711,,,,,,,,,,,,,,
1622730205.230,,,2.288495,1.713926,0.000000,0.000000,0.000000,0.000000,2.129403,0.000000,0.769321,-0.028773,0.000000,0.000000,2.016166,0.581482
1622730205.245,,,2.279813,1.727703,0.000000,0.000000,0.000000,0.000000,2.149630,0.000000,0.769625,-0.028342,0.000000,0.000000,2.029502,0.585329
1622730205.256,0.267375,,,,,,,,,,,,,,,
1622730205.257,,0.220527,,,,,,,,,,,,,,
1622730205.258,,,2.273472,1.737499,0.000000,0.000000,0.000000,0.000000,2.162984,0.000000,0.768879,-0.028023,0.000000,0.000000,2.039276,0.587784
1622730205.270,,,2.267708,1.746228,0.000000,0.000000,0.000000,0.000000,2.169983,0.000000,0.768483,-0.027701,0.000000,0.000000,2.048153,0.590502
1622730205.287,,,2.261933,1.754818,0.000000,0.000000,0.000000,0.000000,2.177328,0.000000,0.768581,-0.027385,0.000000,0.000000,2.057052,0.593131
1622730205.288,,0.222705,,,,,,,,,,,,,,
1622730205.288,0.268810,,,,,,,,,,,,,,,
1622730205.302,,,2.253553,1.766985,0.000000,0.000000,0.000000,0.000000,2.192109,0.000000,0.768236,-0.027022,0.000000,0.000000,2.069475,0.596890
1622730205.311,,,2.246315,1.777226,0.000000,0.000000,0.000000,0.000000,2.199065,0.000000,0.767835,-0.026817,0.000000,0.000000,2.079772,0.599413
1622730205.324,0.269466,,,,,,,,,,,,,,,
1622730205.324,,,2.241591,1.783780,0.000000,0.000000,0.000000,0.000000,2.205657,0.000000,0.767240,-0.026678,0.000000,0.000000,2.086484,0.600619
1622730205.324,,0.222450,,,,,,,,,,,,,,
1622730205.337,,,2.234483,1.793519,0.000000,0.000000,0.000000,0.000000,2.218303,0.000000,0.766804,-0.026465,0.000000,0.000000,2.096687,0.602208
1622730205.351,,,2.228049,1.802165,0.000000,0.000000,0.000000,0.000000,2.224919,0.000000,0.766149,-0.026262,0.000000,0.000000,2.105908,0.603652
1622730205.362,0.274906,,,,,,,,,,,,,,,
1622730205.362,,0.224232,,,,,,,,,,,,,,
1622730205.368,,,2.220357,1.812318,0.000000,0.000000,0.000000,0.000000,2.231754,0.000000,0.765289,-0.026007,0.000000,0.000000,2.116928,0.605385
1622730205.380,,,2.212977,1.821856,0.000000,0.000000,0.000000,0.000000,2.246230,0.000000,0.765682,-0.025730,0.000000,0.000000,2.127588,0.607476
1622730205.391,,,2.206136,1.830485,0.000000,0.000000,0.000000,0.000000,2.253599,0.000000,0.765356,-0.025549,0.000000,0.000000,2.136981,0.609336
1622730205.394,0.279339,,,,,,,,,,,,,,,
1622730205.395,,0.224963,,,,,,,,,,,,,,
1622730205.402,,,2.200432,1.837554,0.000000,0.000000,0.000000,0.000000,2.261105,0.000000,0.765306,-0.025400,0.000000,0.000000,2.144821,0.610729
1622730205.414,,,2.193636,1.845856,0.000000,0.000000,0.000000,0.000000,2.275457,0.000000,0.766053,-0.025221,0.000000,0.000000,2.154267,0.612252
1622730205.429,0.281851,,,,,,,,,,,,,,,
1622730205.430,,0.225508,,,,,,,,,,,,,,
1622730205.436,,,2.186848,1.853980,0.000000,0.000000,0.000000,0.000000,2.282560,0.000000,0.766314,-0.025072,0.000000,0.000000,2.163424,0.613474
1622730205.447,,,2.174908,1.867700,0.000000,0.000000,0.000000,0.000000,2.295925,0.000000,0.766551,-0.024612,0.000000,0.000000,2.178784,0.614994
1622730205.458,,,2.168662,1.874678,0.000000,0.000000,0.000000,0.000000,2.302573,0.000000,0.766500,-0.024383,0.000000,0.000000,2.186765,0.615843
1622730205.470,,,2.161900,1.882124,0.000000,0.000000,0.000000,0.000000,2.309131,0.000000,0.766678,-0.024144,0.000000,0.000000,2.195414,0.616692
1622730205.474,0.278736,,,,,,,,,,,,,,,
1622730205.476,,0.225984,,,,,,,,,,,,,,
1622730205.487,,,2.156026,1.888489,0.000000,0.000000,0.000000,0.000000,2.315769,0.000000,0.766922,-0.023946,0.000000,0.000000,2.202926,0.617240
1622730205.498,,,2.144465,1.900760,0.000000,0.000000,0.000000,0.000000,2.328627,0.000000,0.767897,-0.023533,0.000000,0.000000,2.217259,0.618399
1622730205.511,,,2.138879,1.906536,0.000000,0.000000,0.000000,0.000000,2.335271,0.000000,0.767932,-0.023351,0.000000,0.000000,2.224147,0.619066
1622730205.513,0.280286,,,,,,,,,,,,,,,
1622730205.514,,0.228155,,,,,,,,,,,,,,
1622730205.525,,,2.131016,1.914563,0.000000,0.000000,0.000000,0.000000,2.342163,0.000000,0.767795,-0.023106,0.000000,0.000000,2.233873,0.620131
1622730205.537,,,2.122685,1.922985,0.000000,0.000000,0.000000,0.000000,2.356041,0.000000,0.767945,-0.022914,0.000000,0.000000,2.243832,0.621635
1622730205.552,,,2.115558,1.930062,0.000000,0.000000,0.000000,0.000000,2.362976,0.000000,0.767676,-0.022766,0.000000,0.000000,2.252361,0.622654
1622730205.565,,,2.106196,1.939130,0.000000,0.000000,0.000000,0.000000,2.369662,0.000000,0.767476,-0.022507,0.000000,0.000000,2.263171,0.623821
1622730205.570,0.260295,,,,,,,,,,,,,,,
1622730205.571,,0.229705,,,,,,,,,,,,,,
1622730205.586,,,2.096363,1.948470,0.000000,0.000000,0.000000,0.000000,2.382999,0.000000,0.767909,-0.022266,0.000000,0.000000,2.274624,0.624911
1622730205.592,,,2.086513,1.957633,0.000000,0.000000,0.000000,0.000000,2.389777,0.000000,0.767674,-0.022016,0.000000,0.000000,2.285585,0.626298
1622730205.604,0.272056,,,,,,,,,,,,,,,
1622730205.605,,0.232394,,,,,,,,,,,,,,
1622730205.606,,,2.079250,1.964259,0.000000,0.000000,0.000000,0.000000,2.396557,0.000000,0.766825,-0.021851,0.000000,0.000000,2.293682,0.627359
1622730205.619,,,2.069893,1.972669,0.000000,0.000000,0.000000,0.000000,2.410822,0.000000,0.766457,-0.021615,0.000000,0.000000,2.304263,0.629647
1622730205.631,,,2.061802,1.979802,0.000000,0.000000,0.000000,0.000000,2.418274,0.000000,0.765861,-0.021446,0.000000,0.000000,2.313449,0.631411
1622730205.644,,,2.053997,1.986510,0.000000,0.000000,0.000000,0.000000,2.425718,0.000000,0.765960,-0.021229,0.000000,0.000000,2.322022,0.632876
1622730205.649,0.274132,,,,,,,,,,,,,,,
1622730205.651,,0.234548,,,,,,,,,,,,,,
1622730205.660,,,2.045191,1.993962,0.000000,0.000000,0.000000,0.000000,2.433034,0.000000,0.765468,-0.021016,0.000000,0.000000,2.331739,0.634408
1622730205.670,,,2.033782,2.003423,0.000000,0.000000,0.000000,0.000000,2.448177,0.000000,0.764747,-0.020660,0.000000,0.000000,2.343992,0.636965
1622730205.682,0.271209,,,,,,,,,,,,,,,
1622730205.683,,0.237818,,,,,,,,,,,,,,
1622730205.685,,,2.026429,2.009385,0.000000,0.000000,0.000000,0.000000,2.455904,0.000000,0.765150,-0.020480,0.000000,0.000000,2.351917,0.638391
1622730205.699,,,2.015488,2.018129,0.000000,0.000000,0.000000,0.000000,2.471117,0.000000,0.764588,-0.020199,0.000000,0.000000,2.363891,0.641113
1622730205.710,,,2.006669,2.025021,0.000000,0.000000,0.000000,0.000000,2.478328,0.000000,0.764489,-0.020031,0.000000,0.000000,2.373575,0.642856
1622730205.713,0.273331,,,,,,,,,,,,,,,
1622730205.714,,0.239463,,,,,,,,,,,,,,
1622730205.723,,,1.999872,2.030236,0.000000,0.000000,0.000000,0.000000,2.485263,0.000000,0.764829,-0.019938,0.000000,0.000000,2.381062,0.643940
1622730205.738,,,1.989270,2.038132,0.000000,0.000000,0.000000,0.000000,2.499634,0.000000,0.764831,-0.019589,0.000000,0.000000,2.392415,0.645922
1622730205.748,0.279587,,,,,,,,,,,,,,,
1622730205.750,,0.241358,,,,,,,,,,,,,,
1622730205.756,,,1.979303,2.045394,0.000000,0.000000,0.000000,0.000000,2.506993,0.000000,0.764402,-0.019327,0.000000,0.000000,2.403131,0.647993
1622730205.767,,,1.966165,2.054760,0.000000,0.000000,0.000000,0.000000,2.521215,0.000000,0.764192,-0.018917,0.000000,0.000000,2.417004,0.650467
1622730205.779,,,1.959167,2.059617,0.000000,0.000000,0.000000,0.000000,2.528243,0.000000,0.764821,-0.018764,0.000000,0.000000,2.424406,0.651614
1622730205.780,0.279603,,,,,,,,,,,,,,,
1622730205.782,,0.242253,,,,,,,,,,,,,,
1622730205.792,,,1.949338,2.066339,0.000000,0.000000,0.000000,0.000000,2.535405,0.000000,0.764725,-0.018580,0.000000,0.000000,2.434858,0.653581
1622730205.807,,,1.940514,2.072259,0.000000,0.000000,0.000000,0.000000,2.542482,0.000000,0.764822,-0.018364,0.000000,0.000000,2.443864,0.655107
1622730205.813,0.277814,,,,,,,,,,,,,,,
1622730205.814,,0.243616,,,,,,,,,,,,,,
1622730205.823,,,1.929303,2.079650,0.000000,0.000000,0.000000,0.000000,2.557149,0.000000,0.765763,-0.018162,0.000000,0.000000,2.455473,0.657320
1622730205.838,,,1.917490,2.087261,0.000000,0.000000,0.000000,0.000000,2.564794,0.000000,0.766068,-0.018023,0.000000,0.000000,2.467754,0.659892
1622730205.848,0.285213,,,,,,,,,,,,,,,
1622730205.849,,0.244315,,,,,,,,,,,,,,
1622730205.860,,,1.905818,2.094546,0.000000,0.000000,0.000000,0.000000,2.580112,0.000000,0.766040,-0.017773,0.000000,0.000000,2.479581,0.662095
1622730205.864,,,1.895485,2.100843,0.000000,0.000000,0.000000,0.000000,2.587704,0.000000,0.767120,-0.017631,0.000000,0.000000,2.490097,0.664016
1622730205.875,,,1.886920,2.105952,0.000000,0.000000,0.000000,0.000000,2.603028,0.000000,0.767416,-0.017580,0.000000,0.000000,2.498941,0.665533
1622730205.885,0.255109,,,,,,,,,,,,,,,
1622730205.887,,0.245668,,,,,,,,,,,,,,
1622730205.892,,,1.877396,2.111529,0.000000,0.000000,0.000000,0.000000,2.610876,0.000000,0.767560,-0.017581,0.000000,0.000000,2.508838,0.667286
1622730205.907,,,1.867078,2.117449,0.000000,0.000000,0.000000,0.000000,2.618973,0.000000,0.766939,-0.017635,0.000000,0.000000,2.519622,0.669562
1622730205.918,0.267805,,,,,,,,,,,,,,,
1622730205.919,,0.247104,,,,,,,,,,,,,,
1622730205.924,,,1.854546,2.124282,0.000000,0.000000,0.000000,0.000000,2.627240,0.000000,0.765265,-0.017387,0.000000,0.000000,2.532309,0.672137
1622730205.935,,,1.841497,2.131306,0.000000,0.000000,0.000000,0.000000,2.643829,0.000000,0.764592,-0.017130,0.000000,0.000000,2.545308,0.674493
1622730205.947,,,1.832681,2.135916,0.000000,0.000000,0.000000,0.000000,2.652005,0.000000,0.763843,-0.017036,0.000000,0.000000,2.554149,0.675870
1622730205.954,0.263715,,,,,,,,,,,,,,,
1622730205.955,,0.247049,,,,,,,,,,,,,,
1622730205.963,,,1.823403,2.140672,0.000000,0.000000,0.000000,0.000000,2.668470,0.000000,0.763410,-0.016992,0.000000,0.000000,2.563622,0.677158
1622730205.977,,,1.810656,2.147066,0.000000,0.000000,0.000000,0.000000,2.676753,0.000000,0.762640,-0.017013,0.000000,0.000000,2.576728,0.678728
1622730205.985,0.274521,,,,,,,,,,,,,,,
1622730205.986,,0.246675,,,,,,,,,,,,,,
1622730205.990,,,1.800778,2.151870,0.000000,0.000000,0.000000,0.000000,2.692529,0.000000,0.761774,-0.017107,0.000000,0.000000,2.587037,0.679391
1622730206.003,,,1.790611,2.156514,0.000000,0.000000,0.000000,0.000000,2.700233,0.000000,0.761647,-0.016901,0.000000,0.000000,2.597318,0.679837
1622730206.015,,,1.776877,2.162529,0.000000,0.000000,0.000000,0.000000,2.715476,0.000000,0.761292,-0.016347,0.000000,0.000000,2.610836,0.680124
1622730206.017,0.280966,,,,,,,,,,,,,,,
1622730206.018,,0.246220,,,,,,,,,,,,,,
1622730206.030,,,1.767785,2.166373,0.000000,0.000000,0.000000,0.000000,2.722799,0.000000,0.761451,-0.016079,0.000000,0.000000,2.619807,0.680030
1622730206.048,0.297489,,,,,,,,,,,,,,,
1622730206.048,,0.243754,,,,,,,,,,,,,,
1622730206.050,,,1.758993,2.170003,0.000000,0.000000,0.000000,0.000000,2.729910,0.000000,0.761552,-0.015880,0.000000,0.000000,2.628516,0.679962
1622730206.062,,,1.742694,2.176474,0.000000,0.000000,0.000000,0.000000,2.744646,0.000000,0.763307,-0.015229,0.000000,0.000000,2.644260,0.679536
1622730206.074,,,1.732258,2.180441,0.000000,0.000000,0.000000,0.000000,2.752427,0.000000,0.763885,-0.014956,0.000000,0.000000,2.654339,0.679447
1622730206.083,,,1.722392,2.184085,0.000000,0.000000,0.000000,0.000000,2.768405,0.000000,0.765620,-0.014789,0.000000,0.000000,2.663999,0.679584
1622730206.091,,0.243504,,,,,,,,,,,,,,
1622730206.092,0.270414,,,,,,,,,,,,,,,
1622730206.101,,,1.715358,2.186613,0.000000,0.000000,0.000000,0.000000,2.768405,0.000000,0.766828,-0.014735,0.000000,0.000000,2.670842,0.679764
1622730206.112,,,1.699875,2.192226,0.000000,0.000000,0.000000,0.000000,2.784539,0.000000,0.766560,-0.014515,0.000000,0.000000,2.685592,0.680171
1622730206.122,,,1.691480,2.195139,0.000000,0.000000,0.000000,0.000000,2.792494,0.000000,0.766906,-0.014494,0.000000,0.000000,2.693619,0.680352
1622730206.132,,,1.682971,2.198022,0.000000,0.000000,0.000000,0.000000,2.800440,0.000000,0.766721,-0.014525,0.000000,0.000000,2.701810,0.680545
1622730206.142,0.275751,,,,,,,,,,,,,,,
1622730206.144,,0.243737,,,,,,,,,,,,,,
1622730206.149,,,1.675387,2.200527,0.000000,0.000000,0.000000,0.000000,2.808395,0.000000,0.766557,-0.014599,0.000000,0.000000,2.709163,0.680824
1622730206.162,,,1.660393,2.205263,0.000000,0.000000,0.000000,0.000000,2.824502,0.000000,0.766421,-0.014334,0.000000,0.000000,2.723378,0.681130
1622730206.177,0.256630,,,,,,,,,,,,,,,
1622730206.178,,0.243357,,,,,,,,,,,,,,
1622730206.178,,,1.649765,2.208465,0.000000,0.000000,0.000000,0.000000,2.832524,0.000000,0.767053,-0.014277,0.000000,0.000000,2.733494,0.681316
1622730206.188,,,1.636449,2.212341,0.000000,0.000000,0.000000,0.000000,2.848589,0.000000,0.765813,-0.014326,0.000000,0.000000,2.746376,0.681704
1622730206.202,,,1.627805,2.214742,0.000000,0.000000,0.000000,0.000000,2.856723,0.000000,0.765076,-0.014439,0.000000,0.000000,2.754796,0.681852
1622730206.213,,,1.617923,2.217403,0.000000,0.000000,0.000000,0.000000,2.865034,0.000000,0.764839,-0.014630,0.000000,0.000000,2.764498,0.682123
1622730206.214,0.276713,,,,,,,,,,,,,,,
1622730206.215,,0.238065,,,,,,,,,,,,,,
1622730206.225,,,1.608449,2.219927,0.000000,0.000000,0.000000,0.000000,2.873677,0.000000,0.764050,-0.014656,0.000000,0.000000,2.773490,0.682491
1622730206.234,,,1.598600,2.222462,0.000000,0.000000,0.000000,0.000000,2.890427,0.000000,0.764379,-0.014821,0.000000,0.000000,2.783014,0.681483
1622730206.252,0.256613,,,,,,,,,,,,,,,
1622730206.252,,,1.591553,2.224210,0.000000,0.000000,0.000000,0.000000,2.890427,0.000000,0.764413,-0.014985,0.000000,0.000000,2.789794,0.680714
1622730206.254,,0.236735,,,,,,,,,,,,,,
1622730206.265,,,1.579682,2.227077,0.000000,0.000000,0.000000,0.000000,2.905711,0.000000,0.764458,-0.015316,0.000000,0.000000,2.801389,0.678888
1622730206.276,,,1.565535,2.230363,0.000000,0.000000,0.000000,0.000000,2.920053,0.000000,0.763504,-0.015478,0.000000,0.000000,2.814864,0.676344
1622730206.285,0.280469,,,,,,,,,,,,,,,
1622730206.286,,0.236727,,,,,,,,,,,,,,
1622730206.293,,,1.556404,2.232363,0.000000,0.000000,0.000000,0.000000,2.927302,0.000000,0.762709,-0.015653,0.000000,0.000000,2.823585,0.674973
1622730206.308,,,1.543415,2.235097,0.000000,0.000000,0.000000,0.000000,2.934662,0.000000,0.764259,-0.015979,0.000000,0.000000,2.836051,0.673084
1622730206.320,,,1.530422,2.237669,0.000000,0.000000,0.000000,0.000000,2.949540,0.000000,0.764868,-0.016053,0.000000,0.000000,2.848218,0.671798
1622730206.323,0.286414,,,,,,,,,,,,,,,
1622730206.324,,0.224411,,,,,,,,,,,,,,
1622730206.330,,,1.520682,2.239526,0.000000,0.000000,0.000000,0.000000,2.957500,0.000000,0.765152,-0.015946,0.000000,0.000000,2.857018,0.671161
1622730206.343,,,1.510495,2.241383,0.000000,0.000000,0.000000,0.000000,2.965356,0.000000,0.766335,-0.016081,0.000000,0.000000,2.866275,0.667905
1622730206.356,0.255934,,,,,,,,,,,,,,,
1622730206.359,,0.225799,,,,,,,,,,,,,,
1622730206.366,,,1.496903,2.243744,0.000000,0.000000,0.000000,0.000000,2.981489,0.000000,0.767307,-0.016343,0.000000,0.000000,2.878786,0.664228
1622730206.377,,,1.479759,2.246377,0.000000,0.000000,0.000000,0.000000,2.997551,0.000000,0.766014,-0.016182,0.000000,0.000000,2.894209,0.660545
1622730206.388,,,1.470544,2.247655,0.000000,0.000000,0.000000,0.000000,3.005491,0.000000,0.765177,-0.016195,0.000000,0.000000,2.902524,0.658744
1622730206.399,,,1.461145,2.248883,0.000000,0.000000,0.000000,0.000000,3.013016,0.000000,0.765111,-0.016270,0.000000,0.000000,2.911046,0.656677
1622730206.411,0.279204,,,,,,,,,,,,,,,
1622730206.412,,,1.452880,2.249895,0.000000,0.000000,0.000000,0.000000,3.020433,0.000000,0.764290,-0.016385,0.000000,0.000000,2.918583,0.654986
1622730206.412,,0.211432,,,,,,,,,,,,,,
1622730206.424,,,1.441775,2.251052,0.000000,0.000000,0.000000,0.000000,3.028006,0.000000,0.764761,-0.016320,0.000000,0.000000,2.928389,0.649500
1622730206.443,,,1.430852,2.252089,0.000000,0.000000,0.000000,0.000000,3.035706,0.000000,0.765959,-0.016328,0.000000,0.000000,2.938030,0.644775
1622730206.455,0.264672,,,,,,,,,,,,,,,
1622730206.456,,0.197569,,,,,,,,,,,,,,
1622730206.457,,,1.414952,2.253456,0.000000,0.000000,0.000000,0.000000,3.051536,0.000000,0.766814,-0.016445,0.000000,0.000000,2.952227,0.638858
1622730206.469,,,1.402611,2.254352,0.000000,0.000000,0.000000,0.000000,3.067337,0.000000,0.766459,-0.016889,0.000000,0.000000,2.963345,0.631130
1622730206.480,,,1.393656,2.254910,0.000000,0.000000,0.000000,0.000000,3.075318,0.000000,0.765921,-0.017241,0.000000,0.000000,2.971401,0.626031
1622730206.494,,,1.383298,2.255539,0.000000,0.000000,0.000000,0.000000,3.083163,0.000000,0.765481,-0.017345,0.000000,0.000000,2.980363,0.620560
1622730206.495,0.280017,,,,,,,,,,,,,,,
1622730206.496,,0.160699,,,,,,,,,,,,,,
1622730206.513,,,1.368875,2.256293,0.000000,0.000000,0.000000,0.000000,3.090695,0.000000,0.766329,-0.018262,0.000000,0.000000,2.992857,0.601500
1622730206.527,,,1.356398,2.256810,0.000000,0.000000,0.000000,0.000000,3.105270,0.000000,0.768219,-0.019002,0.000000,0.000000,3.003550,0.586730
1622730206.541,,,1.344017,2.257207,0.000000,0.000000,0.000000,0.000000,3.118520,0.000000,0.768733,-0.019710,0.000000,0.000000,3.014096,0.573032
1622730206.546,0.272282,,,,,,,,,,,,,,,
1622730206.547,,0.142135,,,,,,,,,,,,,,
1622730206.554,,,1.333660,2.257441,0.000000,0.000000,0.000000,0.000000,3.125282,0.000000,0.769674,-0.020289,0.000000,0.000000,3.022807,0.563081
1622730206.566,,,1.321812,2.257616,0.000000,0.000000,0.000000,0.000000,3.139201,0.000000,0.770752,-0.021270,0.000000,0.000000,3.032801,0.547772
1622730206.584,,,1.312230,2.257673,0.000000,0.000000,0.000000,0.000000,3.139201,0.000000,0.771016,-0.022024,0.000000,0.000000,3.040673,0.535798
1622730206.590,0.309949,,,,,,,,,,,,,,,
1622730206.591,,0.107959,,,,,,,,,,,,,,
1622730206.621,,,1.299666,2.257658,0.000000,0.000000,0.000000,0.000000,3.151498,0.000000,0.771345,-0.022975,0.000000,0.000000,3.050983,0.521334
1622730206.631,,,1.276038,2.257340,0.000000,0.000000,0.000000,0.000000,3.170234,0.000000,0.775788,-0.024873,0.000000,0.000000,3.069745,0.479266
1622730206.632,0.285541,,,,,,,,,,,,,,,
1622730206.632,,0.064833,,,,,,,,,,,,,,
1622730206.644,,,1.266131,2.257045,0.000000,0.000000,0.000000,0.000000,3.181604,0.000000,0.777554,-0.025502,0.000000,0.000000,3.077159,0.464970
1622730206.657,,,1.250768,2.256485,0.000000,0.000000,0.000000,0.000000,3.192055,0.000000,0.779632,-0.027404,0.000000,0.000000,3.088529,0.428030
1622730206.657,0.275243,,,,,,,,,,,,,,,
1622730206.658,,0.033540,,,,,,,,,,,,,,
1622730206.670,,,1.239708,2.255750,0.000000,0.000000,0.000000,0.000000,3.197207,0.000000,0.779758,-0.028377,0.000000,0.000000,3.095961,0.397210
1622730206.696,,,1.229689,2.255254,0.000000,0.000000,0.000000,0.000000,3.202263,0.000000,0.780135,-0.028780,0.000000,0.000000,3.102064,0.372962
1622730206.697,0.260230,,,,,,,,,,,,,,,
1622730206.698,,0.015251,,,,,,,,,,,,,,
1622730206.716,,,1.206668,2.253975,0.000000,0.000000,0.000000,0.000000,3.216101,0.000000,0.778822,-0.029128,0.000000,0.000000,3.115272,0.312771
1622730206.729,,,1.191794,2.252950,0.000000,0.000000,0.000000,0.000000,3.223225,0.000000,0.778179,-0.028329,0.000000,0.000000,3.122571,0.281346
1622730206.730,0.259846,,,,,,,,,,,,,,,
1622730206.731,,0.004130,,,,,,,,,,,,,,
1622730206.742,,,1.178950,2.251979,0.000000,0.000000,0.000000,0.000000,3.226307,0.000000,0.776966,-0.027216,0.000000,0.000000,3.128202,0.254444
1622730206.753,,,1.169343,2.251186,0.000000,0.000000,0.000000,0.000000,3.229258,0.000000,0.776276,-0.026312,0.000000,0.000000,3.132148,0.236037
1622730206.763,,,1.159992,2.250367,0.000000,0.000000,0.000000,0.000000,3.232048,0.000000,0.775869,-0.025397,0.000000,0.000000,3.135820,0.219392
1622730206.773,,,1.151175,2.249515,0.000000,0.000000,0.000000,0.000000,3.234520,0.000000,0.775337,-0.024187,0.000000,0.000000,3.139014,0.205041
1622730206.779,0.270154,,,,,,,,,,,,,,,
1622730206.781,,-0.014407,,,,,,,,,,,,,,
1622730206.788,,,1.141630,2.248550,0.000000,0.000000,0.000000,0.000000,3.236400,0.000000,0.775724,-0.022881,0.000000,0.000000,3.142330,0.190219
1622730206.801,,,1.129274,2.247312,0.000000,0.000000,0.000000,0.000000,3.239224,0.000000,0.775859,-0.021515,0.000000,0.000000,3.146436,0.166933
1622730206.811,,,1.118128,2.246063,0.000000,0.000000,0.000000,0.000000,3.240412,0.000000,0.776281,-0.019777,0.000000,0.000000,3.149717,0.148458
1622730206.823,,,1.108907,2.244984,0.000000,0.000000,0.000000,0.000000,3.241409,0.000000,0.776929,-0.018349,0.000000,0.000000,3.152245,0.134302
1622730206.828,0.282236,,,,,,,,,,,,,,,
1622730206.829,,-0.032539,,,,,,,,,,,,,,
1622730206.835,,,1.099368,2.243815,0.000000,0.000000,0.000000,0.000000,3.242261,0.000000,0.777047,-0.016891,0.000000,0.000000,3.154710,0.120702
1622730206.844,,,1.087760,2.242337,0.000000,0.000000,0.000000,0.000000,3.243988,0.000000,0.777674,-0.015433,0.000000,0.000000,3.157547,0.100611
1622730206.859,,,1.080674,2.241401,0.000000,0.000000,0.000000,0.000000,3.245016,0.000000,0.778164,-0.014540,0.000000,0.000000,3.159118,0.089447
1622730206.878,,,1.067457,2.239626,0.000000,0.000000,0.000000,0.000000,3.246202,0.000000,0.779486,-0.012884,0.000000,0.000000,3.161893,0.069992
1622730206.887,,,1.052820,2.237851,0.000000,0.000000,0.000000,0.000000,3.248286,0.000000,0.780279,-0.010790,0.000000,0.000000,3.164538,0.051277
1622730206.888,0.274798,,,,,,,,,,,,,,,
1622730206.889,,-0.049564,,,,,,,,,,,,,,
1622730206.903,,,1.043209,2.236479,0.000000,0.000000,0.000000,0.000000,3.248990,0.000000,0.780679,-0.009214,0.000000,0.000000,3.166014,0.037186
1622730206.915,,,1.030702,2.234657,0.000000,0.000000,0.000000,0.000000,3.249392,0.000000,0.781659,-0.007199,0.000000,0.000000,3.167735,0.019769
1622730206.921,0.261673,,,,,,,,,,,,,,,
1622730206.923,,-0.068701,,,,,,,,,,,,,,
1622730206.930,,,1.020682,2.233139,0.000000,0.000000,0.000000,0.000000,3.249538,0.000000,0.781767,-0.005632,0.000000,0.000000,3.168909,0.006996
1622730206.941,,,1.006673,2.231122,0.000000,0.000000,0.000000,0.000000,3.249848,0.000000,0.781120,-0.003555,0.000000,0.000000,3.170297,-0.014791
1622730206.952,,,0.997732,2.229801,0.000000,0.000000,0.000000,0.000000,3.249875,0.000000,0.781105,-0.002248,0.000000,0.000000,3.170958,-0.027404
1622730206.963,,,0.988585,2.228416,0.000000,0.000000,0.000000,0.000000,3.249716,0.000000,0.780605,-0.000936,0.000000,0.000000,3.171498,-0.039430
1622730206.963,0.247443,,,,,,,,,,,,,,,
1622730206.965,,-0.074043,,,,,,,,,,,,,,
1622730206.976,,,0.976950,2.226619,0.000000,0.000000,0.000000,0.000000,3.249261,0.000000,0.779002,0.000607,0.000000,0.000000,3.172014,-0.055069
1622730206.994,,,0.968256,2.225252,0.000000,0.000000,0.000000,0.000000,3.249144,0.000000,0.778026,0.001728,0.000000,0.000000,3.172236,-0.065718
1622730206.996,0.252251,,,,,,,,,,,,,,,
1622730206.997,,-0.082623,,,,,,,,,,,,,,
1622730207.004,,,0.955561,2.223240,0.000000,0.000000,0.000000,0.000000,3.249168,0.000000,0.777354,0.003317,0.000000,0.000000,3.172399,-0.080223
1622730207.016,,,0.944898,2.221464,0.000000,0.000000,0.000000,0.000000,3.249001,0.000000,0.776188,0.004880,0.000000,0.000000,3.172345,-0.092836
1622730207.028,0.262735,,,,,,,,,,,,,,,
1622730207.029,,-0.085285,,,,,,,,,,,,,,
1622730207.036,,,0.933450,2.219533,0.000000,0.000000,0.000000,0.000000,3.247953,0.000000,0.775354,0.006493,0.000000,0.000000,3.172098,-0.105446
1622730207.045,,,0.919098,2.217101,0.000000,0.000000,0.000000,0.000000,3.245552,0.000000,0.775827,0.008991,0.000000,0.000000,3.171545,-0.120714
1622730207.060,,,0.909863,2.215493,0.000000,0.000000,0.000000,0.000000,3.244372,0.000000,0.775387,0.010500,0.000000,0.000000,3.171010,-0.129431
1622730207.060,0.267934,,,,,,,,,,,,,,,
1622730207.062,,-0.088739,,,,,,,,,,,,,,
1622730207.078,,,0.893545,2.212806,0.000000,0.000000,0.000000,0.000000,3.241571,0.000000,0.775591,0.013393,0.000000,0.000000,3.169884,-0.144417
1622730207.090,,,0.881684,2.210805,0.000000,0.000000,0.000000,0.000000,3.239920,0.000000,0.775310,0.015328,0.000000,0.000000,3.168832,-0.154309
1622730207.097,0.273939,,,,,,,,,,,,,,,
1622730207.097,,-0.093185,,,,,,,,,,,,,,
1622730207.104,,,0.872529,2.209239,0.000000,0.000000,0.000000,0.000000,3.238426,0.000000,0.774950,0.016721,0.000000,0.000000,3.167898,-0.161078
