__time,/control/accel/data,/control/steering/data,/est_state_info/X,/est_state_info/Y,/est_state_info/ax,/est_state_info/ay,/est_state_info/pitch,/est_state_info/roll,/est_state_info/s,/est_state_info/timestamp_ms,/est_state_info/vx,/est_state_info/vy,/est_state_info/x,/est_state_info/y,/est_state_info/yaw,/est_state_info/yaw_rate
1632292861.546,,,1.325146,0.007832,0.000000,0.000000,0.000000,0.000000,-0.009515,0.000000,0.768266,0.040562,0.000000,0.000000,-0.001040,0.145337
1632292861.549,,,1.330864,0.008421,0.000000,0.000000,0.000000,0.000000,0.004532,0.000000,0.767375,0.040957,0.000000,0.000000,0.000120,0.153936
1632292861.560,,,1.336559,0.008418,0.000000,0.000000,0.000000,0.000000,0.008685,0.000000,0.766167,0.046735,0.000000,0.000000,0.001241,0.163459
1632292861.564,,,1.344775,0.009483,0.000000,0.000000,0.000000,0.000000,0.006295,0.000000,0.765101,0.049221,0.000000,0.000000,0.002910,0.177114
1632292861.575,,,1.352365,0.010446,0.000000,0.000000,0.000000,0.000000,-0.005909,0.000000,0.762770,0.049542,0.000000,0.000000,0.004629,0.190583
1632292861.585,,0.186515,,,,,,,,,,,,,,
1632292861.585,,,1.359672,0.011372,0.000000,0.000000,0.000000,0.000000,-0.000967,0.000000,0.762387,0.049533,0.000000,0.000000,0.006408,0.202740
1632292861.585,0.357409,,,,,,,,,,,,,,,
1632292861.595,,,1.367184,0.011523,0.000000,0.000000,0.000000,0.000000,0.017733,0.000000,0.761137,0.056860,0.000000,0.000000,0.008558,0.217493
1632292861.600,,,1.373329,0.011705,0.000000,0.000000,0.000000,0.000000,0.012095,0.000000,0.760830,0.056119,0.000000,0.000000,0.010402,0.229673
1632292861.609,0.359558,,,,,,,,,,,,,,,
1632292861.610,,0.227768,,,,,,,,,,,,,,
1632292861.610,,,1.381097,0.011933,0.000000,0.000000,0.000000,0.000000,0.012356,0.000000,0.758559,0.056060,0.000000,0.000000,0.012720,0.243485
1632292861.625,,,1.391291,0.012459,0.000000,0.000000,0.000000,0.000000,0.012356,0.000000,0.751080,0.072308,0.000000,0.000000,0.015766,0.265396
1632292861.642,,,1.397365,0.013437,0.000000,0.000000,0.000000,0.000000,0.010880,0.000000,0.748208,0.068213,0.000000,0.000000,0.017729,0.278807
1632292861.643,,0.239216,,,,,,,,,,,,,,
1632292861.645,,,1.406071,0.014815,0.000000,0.000000,0.000000,0.000000,0.010880,0.000000,0.743924,0.067571,0.000000,0.000000,0.020702,0.297185
1632292861.646,0.365791,,,,,,,,,,,,,,,
1632292861.660,,,1.418529,0.017071,0.000000,0.000000,0.000000,0.000000,0.035236,0.000000,0.739500,0.074740,0.000000,0.000000,0.025942,0.325930
1632292861.669,,,1.421605,0.017485,0.000000,0.000000,0.000000,0.000000,0.035236,0.000000,0.738922,0.072995,0.000000,0.000000,0.027426,0.333163
1632292861.676,0.427642,,,,,,,,,,,,,,,
1632292861.677,,0.250769,,,,,,,,,,,,,,
1632292861.687,,,1.429270,0.018966,0.000000,0.000000,0.000000,0.000000,0.037199,0.000000,0.735640,0.071054,0.000000,0.000000,0.030773,0.348696
1632292861.703,,,1.437352,0.020536,0.000000,0.000000,0.000000,0.000000,0.030041,0.000000,0.734083,0.071503,0.000000,0.000000,0.034408,0.364300
1632292861.703,0.446949,,,,,,,,,,,,,,,
1632292861.703,,0.246198,,,,,,,,,,,,,,
1632292861.721,,,1.452223,0.023428,0.000000,0.000000,0.000000,0.000000,0.036715,0.000000,0.731075,0.078229,0.000000,0.000000,0.041263,0.393282
1632292861.730,,,1.470897,0.027296,0.000000,0.000000,0.000000,0.000000,0.053578,0.000000,0.738075,0.065476,0.000000,0.000000,0.051579,0.429496
1632292861.732,0.465659,,,,,,,,,,,,,,,
1632292861.732,,0.248209,,,,,,,,,,,,,,
1632292861.746,,,1.478295,0.028766,0.000000,0.000000,0.000000,0.000000,0.053578,0.000000,0.740227,0.078224,0.000000,0.000000,0.056013,0.441593
1632292861.753,,,1.488212,0.029941,0.000000,0.000000,0.000000,0.000000,0.069409,0.000000,0.742946,0.074498,0.000000,0.000000,0.061760,0.457148
1632292861.759,,,1.493985,0.031215,0.000000,0.000000,0.000000,0.000000,0.069409,0.000000,0.744831,0.076376,0.000000,0.000000,0.065130,0.465361
1632292861.760,0.452768,,,,,,,,,,,,,,,
1632292861.760,,0.254388,,,,,,,,,,,,,,
1632292861.777,,,1.509940,0.032809,0.000000,0.000000,0.000000,0.000000,0.083209,0.000000,0.748245,0.080256,0.000000,0.000000,0.074673,0.488791
1632292861.780,,,1.512358,0.033084,0.000000,0.000000,0.000000,0.000000,0.083209,0.000000,0.748978,0.079799,0.000000,0.000000,0.076191,0.492193
1632292861.787,0.428625,,,,,,,,,,,,,,,
1632292861.788,,0.254276,,,,,,,,,,,,,,
1632292861.791,,,1.518413,0.033779,0.000000,0.000000,0.000000,0.000000,0.083209,0.000000,0.750794,0.079193,0.000000,0.000000,0.080015,0.500595
1632292861.800,,,1.525160,0.034750,0.000000,0.000000,0.000000,0.000000,0.068045,0.000000,0.752908,0.080021,0.000000,0.000000,0.084648,0.510586
1632292861.809,,,1.532157,0.035800,0.000000,0.000000,0.000000,0.000000,0.085494,0.000000,0.753757,0.080450,0.000000,0.000000,0.089712,0.520704
1632292861.813,0.412940,,,,,,,,,,,,,,,
1632292861.813,,0.261847,,,,,,,,,,,,,,
1632292861.818,,,1.539860,0.037165,0.000000,0.000000,0.000000,0.000000,0.096937,0.000000,0.754373,0.082913,0.000000,0.000000,0.095045,0.531426
1632292861.830,,,1.549595,0.039043,0.000000,0.000000,0.000000,0.000000,0.108463,0.000000,0.756338,0.082865,0.000000,0.000000,0.101946,0.544575
1632292861.836,0.395143,,,,,,,,,,,,,,,
1632292861.837,,0.266659,,,,,,,,,,,,,,
1632292861.840,,,1.555608,0.040515,0.000000,0.000000,0.000000,0.000000,0.093823,0.000000,0.757792,0.083683,0.000000,0.000000,0.106373,0.552645
1632292861.852,,,1.562446,0.041905,0.000000,0.000000,0.000000,0.000000,0.116662,0.000000,0.757673,0.085012,0.000000,0.000000,0.111403,0.561484
1632292861.859,,,1.570165,0.043528,0.000000,0.000000,0.000000,0.000000,0.117712,0.000000,0.757841,0.085250,0.000000,0.000000,0.117194,0.571265
1632292861.860,0.385916,,,,,,,,,,,,,,,
1632292861.862,,0.267708,,,,,,,,,,,,,,
1632292861.871,,,1.579710,0.045244,0.000000,0.000000,0.000000,0.000000,0.117712,0.000000,0.756547,0.085388,0.000000,0.000000,0.124022,0.582447
1632292861.878,,,1.585341,0.046531,0.000000,0.000000,0.000000,0.000000,0.116264,0.000000,0.755798,0.086012,0.000000,0.000000,0.128540,0.589325
1632292861.885,0.381094,,,,,,,,,,,,,,,
1632292861.887,,0.266325,,,,,,,,,,,,,,
1632292861.896,,,1.595790,0.049018,0.000000,0.000000,0.000000,0.000000,0.142030,0.000000,0.754798,0.085889,0.000000,0.000000,0.136675,0.600800
1632292861.909,0.385773,,,,,,,,,,,,,,,
1632292861.909,,0.268346,,,,,,,,,,,,,,
1632292861.909,,,1.607115,0.052633,0.000000,0.000000,0.000000,0.000000,0.144719,0.000000,0.755998,0.086489,0.000000,0.000000,0.146046,0.612815
1632292861.920,,,1.611662,0.054287,0.000000,0.000000,0.000000,0.000000,0.144719,0.000000,0.756624,0.087230,0.000000,0.000000,0.150058,0.617845
1632292861.930,,,1.617279,0.056133,0.000000,0.000000,0.000000,0.000000,0.160158,0.000000,0.757873,0.087144,0.000000,0.000000,0.154580,0.623189
1632292861.931,0.388845,,,,,,,,,,,,,,,
1632292861.932,,0.262194,,,,,,,,,,,,,,
1632292861.945,,,1.626977,0.059080,0.000000,0.000000,0.000000,0.000000,0.146332,0.000000,0.757587,0.087480,0.000000,0.000000,0.162609,0.632816
1632292861.951,,,1.637571,0.061482,0.000000,0.000000,0.000000,0.000000,0.153840,0.000000,0.760743,0.084163,0.000000,0.000000,0.171221,0.641293
1632292861.960,,0.260127,,,,,,,,,,,,,,
1632292861.960,0.383258,,,,,,,,,,,,,,,
1632292861.965,,,1.641159,0.062735,0.000000,0.000000,0.000000,0.000000,0.153840,0.000000,0.761631,0.085343,0.000000,0.000000,0.174147,0.643902
1632292861.981,,,1.654634,0.065677,0.000000,0.000000,0.000000,0.000000,0.186596,0.000000,0.763903,0.085029,0.000000,0.000000,0.185245,0.653180
1632292861.985,,0.262285,,,,,,,,,,,,,,
1632292861.985,0.372733,,,,,,,,,,,,,,,
1632292861.993,,,1.663557,0.069105,0.000000,0.000000,0.000000,0.000000,0.178192,0.000000,0.766396,0.087268,0.000000,0.000000,0.193263,0.659498
1632292861.997,,,1.674346,0.072357,0.000000,0.000000,0.000000,0.000000,0.202049,0.000000,0.768966,0.087319,0.000000,0.000000,0.203708,0.667829
1632292862.000,,,1.677058,0.073441,0.000000,0.000000,0.000000,0.000000,0.202049,0.000000,0.769621,0.087661,0.000000,0.000000,0.206348,0.669821
1632292862.014,0.360449,,,,,,,,,,,,,,,
1632292862.015,,0.266181,,,,,,,,,,,,,,
1632292862.018,,,1.678910,0.074187,0.000000,0.000000,0.000000,0.000000,0.202049,0.000000,0.770081,0.087825,0.000000,0.000000,0.208157,0.671175
1632292862.030,,,1.693716,0.078129,0.000000,0.000000,0.000000,0.000000,0.208217,0.000000,0.771658,0.089029,0.000000,0.000000,0.221126,0.681337
1632292862.036,,,1.701441,0.080696,0.000000,0.000000,0.000000,0.000000,0.211421,0.000000,0.773292,0.089044,0.000000,0.000000,0.228026,0.686571
1632292862.042,0.340613,,,,,,,,,,,,,,,
1632292862.042,,0.258161,,,,,,,,,,,,,,
1632292862.048,,,1.708115,0.082848,0.000000,0.000000,0.000000,0.000000,0.218220,0.000000,0.774654,0.089144,0.000000,0.000000,0.233903,0.690761
1632292862.053,,,1.714877,0.085071,0.000000,0.000000,0.000000,0.000000,0.218220,0.000000,0.776062,0.087153,0.000000,0.000000,0.239902,0.694214
1632292862.058,,,1.717425,0.086025,0.000000,0.000000,0.000000,0.000000,0.225069,0.000000,0.776578,0.087441,0.000000,0.000000,0.242458,0.695572
1632292862.073,,0.259200,,,,,,,,,,,,,,
1632292862.073,0.326677,,,,,,,,,,,,,,,
1632292862.075,,,1.722253,0.087910,0.000000,0.000000,0.000000,0.000000,0.238209,0.000000,0.776828,0.087726,0.000000,0.000000,0.247109,0.698003
1632292862.085,,,1.730699,0.091258,0.000000,0.000000,0.000000,0.000000,0.238209,0.000000,0.777334,0.087979,0.000000,0.000000,0.255293,0.702201
1632292862.090,,,1.744340,0.097208,0.000000,0.000000,0.000000,0.000000,0.261952,0.000000,0.778806,0.088455,0.000000,0.000000,0.267632,0.708266
1632292862.094,0.313469,,,,,,,,,,,,,,,
1632292862.095,,0.259858,,,,,,,,,,,,,,
1632292862.107,,,1.746812,0.098321,0.000000,0.000000,0.000000,0.000000,0.261952,0.000000,0.779102,0.088483,0.000000,0.000000,0.269898,0.709329
1632292862.116,,,1.755931,0.101431,0.000000,0.000000,0.000000,0.000000,0.272423,0.000000,0.777329,0.088106,0.000000,0.000000,0.278259,0.713151
1632292862.120,0.311907,,,,,,,,,,,,,,,
1632292862.120,,0.257765,,,,,,,,,,,,,,
1632292862.123,,,1.766414,0.106374,0.000000,0.000000,0.000000,0.000000,0.266936,0.000000,0.775212,0.089571,0.000000,0.000000,0.288835,0.717823
1632292862.131,,,1.771492,0.108371,0.000000,0.000000,0.000000,0.000000,0.266936,0.000000,0.775581,0.088253,0.000000,0.000000,0.294132,0.719930
1632292862.138,,,1.775637,0.110021,0.000000,0.000000,0.000000,0.000000,0.284523,0.000000,0.775804,0.088148,0.000000,0.000000,0.298576,0.721546
1632292862.142,,,1.781323,0.112387,0.000000,0.000000,0.000000,0.000000,0.288315,0.000000,0.775281,0.088015,0.000000,0.000000,0.304192,0.723554
1632292862.149,,,1.786451,0.114476,0.000000,0.000000,0.000000,0.000000,0.315496,0.000000,0.775055,0.087829,0.000000,0.000000,0.309117,0.725199
1632292862.152,,0.257441,,,,,,,,,,,,,,
1632292862.152,0.312328,,,,,,,,,,,,,,,
1632292862.158,,,1.792462,0.116926,0.000000,0.000000,0.000000,0.000000,0.315496,0.000000,0.775218,0.087972,0.000000,0.000000,0.315579,0.727250
1632292862.174,,0.249375,,,,,,,,,,,,,,
1632292862.174,0.321658,,,,,,,,,,,,,,,
1632292862.193,,,1.804406,0.122034,0.000000,0.000000,0.000000,0.000000,0.315663,0.000000,0.775431,0.087719,0.000000,0.000000,0.327163,0.730557
1632292862.204,0.321004,,,,,,,,,,,,,,,
1632292862.204,,0.248343,,,,,,,,,,,,,,
1632292862.215,,,1.831337,0.137287,0.000000,0.000000,0.000000,0.000000,0.345731,0.000000,0.776278,0.080608,0.000000,0.000000,0.355713,0.734170
1632292862.228,,,1.835751,0.139898,0.000000,0.000000,0.000000,0.000000,0.345731,0.000000,0.776806,0.084717,0.000000,0.000000,0.360474,0.734432
1632292862.229,,0.249038,,,,,,,,,,,,,,
1632292862.229,0.319993,,,,,,,,,,,,,,,
1632292862.245,,,1.845187,0.145048,0.000000,0.000000,0.000000,0.000000,0.373661,0.000000,0.776540,0.087288,0.000000,0.000000,0.371327,0.735374
1632292862.250,,,1.856602,0.150953,0.000000,0.000000,0.000000,0.000000,0.388318,0.000000,0.777575,0.084838,0.000000,0.000000,0.383310,0.736965
1632292862.255,,0.238538,,,,,,,,,,,,,,
1632292862.255,0.317253,,,,,,,,,,,,,,,
1632292862.259,,,1.862024,0.154094,0.000000,0.000000,0.000000,0.000000,0.388318,0.000000,0.779138,0.083513,0.000000,0.000000,0.389468,0.736669
1632292862.271,,,1.865225,0.155968,0.000000,0.000000,0.000000,0.000000,0.378926,0.000000,0.779965,0.083515,0.000000,0.000000,0.393065,0.736385
1632292862.277,,,1.874171,0.160709,0.000000,0.000000,0.000000,0.000000,0.392465,0.000000,0.782796,0.082886,0.000000,0.000000,0.401959,0.735949
1632292862.277,0.315066,,,,,,,,,,,,,,,
1632292862.278,,0.232608,,,,,,,,,,,,,,
1632292862.281,,,1.878431,0.163053,0.000000,0.000000,0.000000,0.000000,0.407142,0.000000,0.782913,0.083300,0.000000,0.000000,0.406642,0.735701
1632292862.300,0.295614,,,,,,,,,,,,,,,
1632292862.300,,0.233886,,,,,,,,,,,,,,
1632292862.301,,,1.882357,0.165239,0.000000,0.000000,0.000000,0.000000,0.407142,0.000000,0.783041,0.083427,0.000000,0.000000,0.410970,0.735499
1632292862.315,,,1.895644,0.171447,0.000000,0.000000,0.000000,0.000000,0.419914,0.000000,0.786220,0.079608,0.000000,0.000000,0.424324,0.734076
1632292862.318,,,1.903133,0.175313,0.000000,0.000000,0.000000,0.000000,0.419914,0.000000,0.787389,0.082165,0.000000,0.000000,0.431788,0.733101
1632292862.325,,,1.908375,0.178086,0.000000,0.000000,0.000000,0.000000,0.439696,0.000000,0.787584,0.081999,0.000000,0.000000,0.437117,0.732602
1632292862.328,0.295217,,,,,,,,,,,,,,,
1632292862.328,,0.232886,,,,,,,,,,,,,,
1632292862.335,,,1.912202,0.180135,0.000000,0.000000,0.000000,0.000000,0.439696,0.000000,0.787712,0.081984,0.000000,0.000000,0.441019,0.732241
1632292862.345,,,1.919276,0.184172,0.000000,0.000000,0.000000,0.000000,0.439696,0.000000,0.787138,0.082066,0.000000,0.000000,0.449133,0.731305
1632292862.349,,,1.926390,0.188591,0.000000,0.000000,0.000000,0.000000,0.448806,0.000000,0.788517,0.082020,0.000000,0.000000,0.456781,0.730445
1632292862.355,0.275705,,,,,,,,,,,,,,,
1632292862.356,,0.243121,,,,,,,,,,,,,,
1632292862.367,,,1.935574,0.194408,0.000000,0.000000,0.000000,0.000000,0.448806,0.000000,0.788947,0.082007,0.000000,0.000000,0.465974,0.729651
1632292862.371,,,1.941895,0.198255,0.000000,0.000000,0.000000,0.000000,0.456201,0.000000,0.787784,0.084729,0.000000,0.000000,0.472331,0.730072
1632292862.382,,,1.946175,0.200915,0.000000,0.000000,0.000000,0.000000,0.456201,0.000000,0.787188,0.084759,0.000000,0.000000,0.476673,0.730461
1632292862.384,0.271795,,,,,,,,,,,,,,,
1632292862.384,,0.243603,,,,,,,,,,,,,,
1632292862.405,,,1.958668,0.209092,0.000000,0.000000,0.000000,0.000000,0.481620,0.000000,0.784487,0.085260,0.000000,0.000000,0.489846,0.731569
1632292862.406,0.274254,,,,,,,,,,,,,,,
1632292862.407,,0.245902,,,,,,,,,,,,,,
1632292862.418,,,1.965698,0.214847,0.000000,0.000000,0.000000,0.000000,0.487741,0.000000,0.782958,0.085664,0.000000,0.000000,0.498359,0.732213
1632292862.435,,,1.976082,0.223303,0.000000,0.000000,0.000000,0.000000,0.506028,0.000000,0.780114,0.086450,0.000000,0.000000,0.511342,0.733415
1632292862.436,0.286401,,,,,,,,,,,,,,,
1632292862.437,,0.246263,,,,,,,,,,,,,,
1632292862.439,,,1.982090,0.227335,0.000000,0.000000,0.000000,0.000000,0.506028,0.000000,0.779222,0.085094,0.000000,0.000000,0.517855,0.733957
1632292862.444,,,1.988908,0.231461,0.000000,0.000000,0.000000,0.000000,0.509603,0.000000,0.778109,0.084753,0.000000,0.000000,0.525113,0.734596
1632292862.449,,,1.992842,0.234200,0.000000,0.000000,0.000000,0.000000,0.534744,0.000000,0.777620,0.084955,0.000000,0.000000,0.529425,0.734890
1632292862.459,,,1.995807,0.236283,0.000000,0.000000,0.000000,0.000000,0.534744,0.000000,0.777269,0.085000,0.000000,0.000000,0.532690,0.735108
1632292862.460,0.304780,,,,,,,,,,,,,,,
1632292862.463,,0.233552,,,,,,,,,,,,,,
1632292862.465,,,2.001529,0.240947,0.000000,0.000000,0.000000,0.000000,0.540311,0.000000,0.776811,0.085623,0.000000,0.000000,0.539937,0.735647
1632292862.468,,,2.005303,0.243691,0.000000,0.000000,0.000000,0.000000,0.534855,0.000000,0.778440,0.082723,0.000000,0.000000,0.544593,0.735076
1632292862.481,,,2.009448,0.246711,0.000000,0.000000,0.000000,0.000000,0.534855,0.000000,0.779978,0.081868,0.000000,0.000000,0.549701,0.734334
1632292862.489,,,2.015776,0.251996,0.000000,0.000000,0.000000,0.000000,0.564139,0.000000,0.780688,0.082122,0.000000,0.000000,0.557610,0.733343
1632292862.490,0.314567,,,,,,,,,,,,,,,
1632292862.491,,0.236874,,,,,,,,,,,,,,
1632292862.501,,,2.022153,0.257915,0.000000,0.000000,0.000000,0.000000,0.571470,0.000000,0.781540,0.083670,0.000000,0.000000,0.565946,0.732761
1632292862.512,,0.232909,,,,,,,,,,,,,,
1632292862.512,0.302292,,,,,,,,,,,,,,,
1632292862.518,,,2.029661,0.263619,0.000000,0.000000,0.000000,0.000000,0.566438,0.000000,0.784224,0.082324,0.000000,0.000000,0.575312,0.732339
1632292862.522,,,2.036828,0.269046,0.000000,0.000000,0.000000,0.000000,0.572715,0.000000,0.785935,0.081459,0.000000,0.000000,0.583798,0.731459
1632292862.534,,,2.039606,0.271182,0.000000,0.000000,0.000000,0.000000,0.572715,0.000000,0.786529,0.081609,0.000000,0.000000,0.587099,0.731042
1632292862.538,0.299870,,,,,,,,,,,,,,,
1632292862.538,,0.228692,,,,,,,,,,,,,,
1632292862.548,,,2.049232,0.279146,0.000000,0.000000,0.000000,0.000000,0.588486,0.000000,0.788272,0.082128,0.000000,0.000000,0.597790,0.729822
1632292862.552,,,2.055300,0.284426,0.000000,0.000000,0.000000,0.000000,0.608047,0.000000,0.790258,0.080812,0.000000,0.000000,0.605382,0.728761
1632292862.564,0.280795,,,,,,,,,,,,,,,
1632292862.564,,0.230127,,,,,,,,,,,,,,
1632292862.574,,,2.061618,0.290096,0.000000,0.000000,0.000000,0.000000,0.595339,0.000000,0.792193,0.081235,0.000000,0.000000,0.613516,0.727460
1632292862.586,,,2.075551,0.301141,0.000000,0.000000,0.000000,0.000000,0.619801,0.000000,0.793771,0.081090,0.000000,0.000000,0.630292,0.725791
1632292862.587,0.266667,,,,,,,,,,,,,,,
1632292862.587,,0.233214,,,,,,,,,,,,,,
1632292862.595,,,2.082171,0.306494,0.000000,0.000000,0.000000,0.000000,0.625386,0.000000,0.791700,0.082289,0.000000,0.000000,0.638135,0.725333
1632292862.608,0.253045,,,,,,,,,,,,,,,
1632292862.608,,0.234220,,,,,,,,,,,,,,
1632292862.613,,,2.088541,0.311748,0.000000,0.000000,0.000000,0.000000,0.625386,0.000000,0.789880,0.081904,0.000000,0.000000,0.645768,0.724936
1632292862.620,,,2.093494,0.316172,0.000000,0.000000,0.000000,0.000000,0.638662,0.000000,0.789314,0.082330,0.000000,0.000000,0.652185,0.724806
1632292862.627,,,2.099328,0.322145,0.000000,0.000000,0.000000,0.000000,0.646158,0.000000,0.788954,0.082756,0.000000,0.000000,0.659524,0.724562
1632292862.629,0.260446,,,,,,,,,,,,,,,
1632292862.629,,0.234465,,,,,,,,,,,,,,
1632292862.640,,,2.105923,0.329029,0.000000,0.000000,0.000000,0.000000,0.668570,0.000000,0.787056,0.082773,0.000000,0.000000,0.668455,0.724409
1632292862.647,,,2.110229,0.333842,0.000000,0.000000,0.000000,0.000000,0.660645,0.000000,0.786000,0.082798,0.000000,0.000000,0.674422,0.724188
1632292862.649,0.270622,,,,,,,,,,,,,,,
1632292862.649,,0.233391,,,,,,,,,,,,,,
1632292862.658,,,2.115437,0.340064,0.000000,0.000000,0.000000,0.000000,0.660645,0.000000,0.785234,0.082596,0.000000,0.000000,0.681624,0.723895
1632292862.670,0.282479,,,,,,,,,,,,,,,
1632292862.670,,0.228246,,,,,,,,,,,,,,
1632292862.674,,,2.123440,0.347899,0.000000,0.000000,0.000000,0.000000,0.691469,0.000000,0.784255,0.081382,0.000000,0.000000,0.691675,0.723461
1632292862.678,,,2.127493,0.351683,0.000000,0.000000,0.000000,0.000000,0.682350,0.000000,0.785087,0.080292,0.000000,0.000000,0.696773,0.722792
1632292862.692,,,2.132489,0.356384,0.000000,0.000000,0.000000,0.000000,0.698742,0.000000,0.784336,0.080054,0.000000,0.000000,0.703214,0.721764
1632292862.692,,0.225744,,,,,,,,,,,,,,
1632292862.692,0.285991,,,,,,,,,,,,,,,
1632292862.704,,,2.139445,0.363016,0.000000,0.000000,0.000000,0.000000,0.698742,0.000000,0.783659,0.078935,0.000000,0.000000,0.712346,0.720192
1632292862.707,,,2.144297,0.367497,0.000000,0.000000,0.000000,0.000000,0.721342,0.000000,0.783130,0.078998,0.000000,0.000000,0.718508,0.719110
1632292862.713,0.288676,,,,,,,,,,,,,,,
1632292862.714,,0.229160,,,,,,,,,,,,,,
1632292862.729,,,2.149397,0.373649,0.000000,0.000000,0.000000,0.000000,0.715645,0.000000,0.782233,0.081073,0.000000,0.000000,0.725986,0.718193
1632292862.730,,,2.155521,0.381501,0.000000,0.000000,0.000000,0.000000,0.738346,0.000000,0.782337,0.080787,0.000000,0.000000,0.735232,0.717158
1632292862.739,0.292390,,,,,,,,,,,,,,,
1632292862.739,,0.231809,,,,,,,,,,,,,,
1632292862.741,,,2.157753,0.384416,0.000000,0.000000,0.000000,0.000000,0.738346,0.000000,0.782354,0.080815,0.000000,0.000000,0.738639,0.716784
1632292862.748,,,2.162761,0.390588,0.000000,0.000000,0.000000,0.000000,0.731743,0.000000,0.782582,0.081454,0.000000,0.000000,0.745759,0.716238
1632292862.761,,,2.170702,0.398500,0.000000,0.000000,0.000000,0.000000,0.752090,0.000000,0.781752,0.080137,0.000000,0.000000,0.755838,0.715830
1632292862.765,0.296466,,,,,,,,,,,,,,,
1632292862.766,,0.225454,,,,,,,,,,,,,,
1632292862.769,,,2.174240,0.402443,0.000000,0.000000,0.000000,0.000000,0.746988,0.000000,0.781653,0.080693,0.000000,0.000000,0.760947,0.715408
1632292862.777,,,2.178296,0.407995,0.000000,0.000000,0.000000,0.000000,0.746988,0.000000,0.782571,0.079684,0.000000,0.000000,0.767160,0.714345
1632292862.790,0.298608,,,,,,,,,,,,,,,
1632292862.791,,0.226158,,,,,,,,,,,,,,
1632292862.795,,,2.187432,0.417974,0.000000,0.000000,0.000000,0.000000,0.773971,0.000000,0.785963,0.078122,0.000000,0.000000,0.779950,0.712376
1632292862.799,,,2.189965,0.421290,0.000000,0.000000,0.000000,0.000000,0.768619,0.000000,0.786116,0.079150,0.000000,0.000000,0.783867,0.711852
1632292862.808,,,2.194919,0.426553,0.000000,0.000000,0.000000,0.000000,0.795541,0.000000,0.785860,0.079083,0.000000,0.000000,0.790539,0.710995
1632292862.815,,0.224539,,,,,,,,,,,,,,
1632292862.819,0.295903,,,,,,,,,,,,,,,
1632292862.829,,,2.202762,0.436422,0.000000,0.000000,0.000000,0.000000,0.787831,0.000000,0.785395,0.079268,0.000000,0.000000,0.800913,0.709480
1632292862.835,0.282886,,,,,,,,,,,,,,,
1632292862.836,,0.227785,,,,,,,,,,,,,,
1632292862.848,,,2.207325,0.442652,0.000000,0.000000,0.000000,0.000000,0.796864,0.000000,0.785659,0.079324,0.000000,0.000000,0.807422,0.708665
1632292862.861,,,2.213115,0.450739,0.000000,0.000000,0.000000,0.000000,0.814060,0.000000,0.786372,0.080585,0.000000,0.000000,0.815926,0.708106
1632292862.863,0.284402,,,,,,,,,,,,,,,
1632292862.864,,0.230914,,,,,,,,,,,,,,
1632292862.869,,,2.220032,0.460378,0.000000,0.000000,0.000000,0.000000,0.812477,0.000000,0.786724,0.079797,0.000000,0.000000,0.827020,0.707379
1632292862.881,,,2.226946,0.469440,0.000000,0.000000,0.000000,0.000000,0.821103,0.000000,0.787115,0.081401,0.000000,0.000000,0.836235,0.707337
1632292862.887,,,2.233713,0.477610,0.000000,0.000000,0.000000,0.000000,0.839414,0.000000,0.785764,0.080121,0.000000,0.000000,0.845524,0.707357
1632292862.891,0.281179,,,,,,,,,,,,,,,
1632292862.891,,0.231152,,,,,,,,,,,,,,
1632292862.899,,,2.239877,0.486157,0.000000,0.000000,0.000000,0.000000,0.839378,0.000000,0.786124,0.081265,0.000000,0.000000,0.854224,0.707309
1632292862.911,,,2.244065,0.492847,0.000000,0.000000,0.000000,0.000000,0.849562,0.000000,0.786868,0.081287,0.000000,0.000000,0.861234,0.707386
1632292862.915,0.282917,,,,,,,,,,,,,,,
1632292862.916,,0.235746,,,,,,,,,,,,,,
1632292862.918,,,2.247274,0.497929,0.000000,0.000000,0.000000,0.000000,0.859561,0.000000,0.787430,0.081222,0.000000,0.000000,0.866771,0.707347
1632292862.930,,,2.252893,0.504784,0.000000,0.000000,0.000000,0.000000,0.873516,0.000000,0.787695,0.081839,0.000000,0.000000,0.874763,0.708007
1632292862.939,0.279024,,,,,,,,,,,,,,,
1632292862.939,,0.236715,,,,,,,,,,,,,,
1632292862.946,,,2.257141,0.510283,0.000000,0.000000,0.000000,0.000000,0.873516,0.000000,0.787952,0.081908,0.000000,0.000000,0.880911,0.708466
1632292862.950,,,2.263567,0.518392,0.000000,0.000000,0.000000,0.000000,0.893906,0.000000,0.785624,0.082171,0.000000,0.000000,0.890349,0.709368
1632292862.960,,,2.266972,0.524220,0.000000,0.000000,0.000000,0.000000,0.894022,0.000000,0.784302,0.082879,0.000000,0.000000,0.896116,0.709767
1632292862.965,0.275626,,,,,,,,,,,,,,,
1632292862.965,,0.237687,,,,,,,,,,,,,,
1632292862.980,,,2.272194,0.533294,0.000000,0.000000,0.000000,0.000000,0.894022,0.000000,0.782144,0.083251,0.000000,0.000000,0.905083,0.710521
1632292862.984,0.287512,,,,,,,,,,,,,,,
1632292862.985,,0.240171,,,,,,,,,,,,,,
1632292862.988,,,2.277214,0.541972,0.000000,0.000000,0.000000,0.000000,0.908260,0.000000,0.781089,0.082434,0.000000,0.000000,0.914832,0.711473
1632292862.992,,,2.280945,0.547024,0.000000,0.000000,0.000000,0.000000,0.923252,0.000000,0.780604,0.082625,0.000000,0.000000,0.920659,0.712036
1632292863.005,0.295936,,,,,,,,,,,,,,,
1632292863.005,,0.238914,,,,,,,,,,,,,,
1632292863.008,,,2.283136,0.550029,0.000000,0.000000,0.000000,0.000000,0.923252,0.000000,0.780337,0.082620,0.000000,0.000000,0.924118,0.712361
1632292863.011,,,2.290183,0.560813,0.000000,0.000000,0.000000,0.000000,0.927696,0.000000,0.779341,0.082737,0.000000,0.000000,0.935193,0.713280
1632292863.019,,,2.292216,0.564457,0.000000,0.000000,0.000000,0.000000,0.926339,0.000000,0.779853,0.082846,0.000000,0.000000,0.938980,0.713600
1632292863.023,0.301800,,,,,,,,,,,,,,,
1632292863.030,,0.236238,,,,,,,,,,,,,,
1632292863.042,,,2.297474,0.573737,0.000000,0.000000,0.000000,0.000000,0.926339,0.000000,0.780515,0.081896,0.000000,0.000000,0.948289,0.713893
1632292863.052,0.303976,,,,,,,,,,,,,,,
1632292863.052,,0.239463,,,,,,,,,,,,,,
1632292863.057,,,2.301994,0.582287,0.000000,0.000000,0.000000,0.000000,0.950283,0.000000,0.781851,0.082312,0.000000,0.000000,0.957867,0.714044
1632292863.063,,,2.309042,0.594144,0.000000,0.000000,0.000000,0.000000,0.963392,0.000000,0.784001,0.083652,0.000000,0.000000,0.969952,0.714939
1632292863.074,,,2.311476,0.599524,0.000000,0.000000,0.000000,0.000000,0.960433,0.000000,0.784101,0.083764,0.000000,0.000000,0.975280,0.715533
1632292863.075,0.301478,,,,,,,,,,,,,,,
1632292863.079,,0.240640,,,,,,,,,,,,,,
1632292863.080,,,2.315390,0.607759,0.000000,0.000000,0.000000,0.000000,0.983828,0.000000,0.784886,0.083942,0.000000,0.000000,0.983271,0.716417
1632292863.088,,,2.318325,0.613273,0.000000,0.000000,0.000000,0.000000,0.983828,0.000000,0.784976,0.083769,0.000000,0.000000,0.988883,0.717132
1632292863.098,0.288621,,,,,,,,,,,,,,,
1632292863.099,,0.236352,,,,,,,,,,,,,,
1632292863.101,,,2.322301,0.620841,0.000000,0.000000,0.000000,0.000000,0.974780,0.000000,0.785088,0.083743,0.000000,0.000000,0.996490,0.718071
1632292863.111,,,2.324951,0.626798,0.000000,0.000000,0.000000,0.000000,0.981964,0.000000,0.785244,0.083134,0.000000,0.000000,1.002045,0.718219
1632292863.120,0.285745,,,,,,,,,,,,,,,
1632292863.120,,0.236437,,,,,,,,,,,,,,
1632292863.130,,,2.329924,0.635098,0.000000,0.000000,0.000000,0.000000,0.999953,0.000000,0.784274,0.081657,0.000000,0.000000,1.010978,0.718475
1632292863.138,,,2.334904,0.646368,0.000000,0.000000,0.000000,0.000000,1.016796,0.000000,0.785381,0.083750,0.000000,0.000000,1.021841,0.718632
1632292863.146,,,2.337966,0.653499,0.000000,0.000000,0.000000,0.000000,1.025090,0.000000,0.786175,0.082490,0.000000,0.000000,1.029542,0.718872
1632292863.148,,0.236641,,,,,,,,,,,,,,
1632292863.148,0.284936,,,,,,,,,,,,,,,
1632292863.157,,,2.340651,0.660419,0.000000,0.000000,0.000000,0.000000,1.025090,0.000000,0.785536,0.083268,0.000000,0.000000,1.035967,0.718995
1632292863.165,,,2.342705,0.665912,0.000000,0.000000,0.000000,0.000000,1.034357,0.000000,0.785485,0.083310,0.000000,0.000000,1.041069,0.719219
1632292863.170,,,2.345343,0.672379,0.000000,0.000000,0.000000,0.000000,1.032338,0.000000,0.785416,0.083149,0.000000,0.000000,1.046999,0.719441
1632292863.173,,0.235025,,,,,,,,,,,,,,
1632292863.173,0.281613,,,,,,,,,,,,,,,
1632292863.178,,,2.348587,0.678758,0.000000,0.000000,0.000000,0.000000,1.054771,0.000000,0.785489,0.081969,0.000000,0.000000,1.053472,0.719503
1632292863.187,,,2.351711,0.684975,0.000000,0.000000,0.000000,0.000000,1.054771,0.000000,0.785456,0.081931,0.000000,0.000000,1.059775,0.719540
1632292863.199,,,2.355140,0.692118,0.000000,0.000000,0.000000,0.000000,1.073944,0.000000,0.784244,0.081900,0.000000,0.000000,1.067434,0.719418
1632292863.203,0.285388,,,,,,,,,,,,,,,
1632292863.203,,0.232533,,,,,,,,,,,,,,
1632292863.208,,,2.358388,0.699027,0.000000,0.000000,0.000000,0.000000,1.076644,0.000000,0.783111,0.081779,0.000000,0.000000,1.074863,0.719391
1632292863.219,,,2.361526,0.707952,0.000000,0.000000,0.000000,0.000000,1.083817,0.000000,0.784384,0.081531,0.000000,0.000000,1.083941,0.718773
1632292863.227,0.288950,,,,,,,,,,,,,,,
1632292863.228,,0.234926,,,,,,,,,,,,,,
1632292863.229,,,2.363116,0.712610,0.000000,0.000000,0.000000,0.000000,1.088903,0.000000,0.784357,0.081612,0.000000,0.000000,1.088691,0.718478
1632292863.248,,,2.365596,0.719794,0.000000,0.000000,0.000000,0.000000,1.102265,0.000000,0.784264,0.082333,0.000000,0.000000,1.096152,0.718491
1632292863.251,0.289074,,,,,,,,,,,,,,,
1632292863.251,,0.230103,,,,,,,,,,,,,,
1632292863.254,,,2.369739,0.731641,0.000000,0.000000,0.000000,0.000000,1.098128,0.000000,0.784049,0.082694,0.000000,0.000000,1.106885,0.718538
1632292863.261,,,2.372250,0.737638,0.000000,0.000000,0.000000,0.000000,1.111796,0.000000,0.785072,0.080989,0.000000,0.000000,1.112421,0.718100
1632292863.268,,,2.375145,0.744717,0.000000,0.000000,0.000000,0.000000,1.121111,0.000000,0.785236,0.080820,0.000000,0.000000,1.118872,0.717530
1632292863.274,0.289858,,,,,,,,,,,,,,,
1632292863.274,,0.226894,,,,,,,,,,,,,,
1632292863.282,,,2.378483,0.755883,0.000000,0.000000,0.000000,0.000000,1.123450,0.000000,0.785912,0.080190,0.000000,0.000000,1.128958,0.716325
1632292863.289,,,2.379656,0.759931,0.000000,0.000000,0.000000,0.000000,1.129231,0.000000,0.786275,0.080295,0.000000,0.000000,1.132625,0.715848
1632292863.295,0.285792,,,,,,,,,,,,,,,
1632292863.295,,0.232924,,,,,,,,,,,,,,
1632292863.306,,,2.382146,0.767117,0.000000,0.000000,0.000000,0.000000,1.144694,0.000000,0.786932,0.079939,0.000000,0.000000,1.139492,0.715006
1632292863.312,,,2.384781,0.776047,0.000000,0.000000,0.000000,0.000000,1.144694,0.000000,0.787798,0.082350,0.000000,0.000000,1.148627,0.714728
1632292863.321,,,2.387321,0.782043,0.000000,0.000000,0.000000,0.000000,1.132954,0.000000,0.787283,0.081186,0.000000,0.000000,1.154565,0.714701
1632292863.321,0.282509,,,,,,,,,,,,,,,
1632292863.321,,0.232313,,,,,,,,,,,,,,
1632292863.336,,,2.390042,0.789486,0.000000,0.000000,0.000000,0.000000,1.147703,0.000000,0.787620,0.081340,0.000000,0.000000,1.161480,0.714471
1632292863.343,0.278785,,,,,,,,,,,,,,,
1632292863.343,,0.230776,,,,,,,,,,,,,,
1632292863.344,,,2.392945,0.799435,0.000000,0.000000,0.000000,0.000000,1.147703,0.000000,0.785844,0.081501,0.000000,0.000000,1.171299,0.714187
1632292863.363,,,2.397306,0.811696,0.000000,0.000000,0.000000,0.000000,1.161540,0.000000,0.785889,0.080738,0.000000,0.000000,1.182289,0.713544
1632292863.365,0.277202,,,,,,,,,,,,,,,
1632292863.365,,0.232847,,,,,,,,,,,,,,
1632292863.372,,,2.400524,0.821279,0.000000,0.000000,0.000000,0.000000,1.189331,0.000000,0.785310,0.081810,0.000000,0.000000,1.190748,0.713435
1632292863.377,,,2.402490,0.828772,0.000000,0.000000,0.000000,0.000000,1.191809,0.000000,0.784372,0.081851,0.000000,0.000000,1.197319,0.713482
1632292863.387,0.283171,,,,,,,,,,,,,,,
1632292863.387,,0.235559,,,,,,,,,,,,,,
1632292863.388,,,2.404289,0.835812,0.000000,0.000000,0.000000,0.000000,1.191809,0.000000,0.783523,0.081754,0.000000,0.000000,1.203495,0.713503
1632292863.410,,,2.406863,0.849381,0.000000,0.000000,0.000000,0.000000,1.217109,0.000000,0.784636,0.083686,0.000000,0.000000,1.215538,0.713965
1632292863.414,,,2.408992,0.855962,0.000000,0.000000,0.000000,0.000000,1.208014,0.000000,0.785339,0.081932,0.000000,0.000000,1.221688,0.714261
1632292863.416,0.288446,,,,,,,,,,,,,,,
1632292863.416,,0.238947,,,,,,,,,,,,,,
1632292863.420,,,2.410170,0.859653,0.000000,0.000000,0.000000,0.000000,1.208014,0.000000,0.785637,0.081904,0.000000,0.000000,1.225137,0.714364
1632292863.430,,,2.412680,0.867392,0.000000,0.000000,0.000000,0.000000,1.208014,0.000000,0.784646,0.082867,0.000000,0.000000,1.232632,0.714976
1632292863.439,0.285325,,,,,,,,,,,,,,,
1632292863.439,,,2.414920,0.874773,0.000000,0.000000,0.000000,0.000000,1.233881,0.000000,0.785283,0.082893,0.000000,0.000000,1.239538,0.715642
1632292863.439,,0.239102,,,,,,,,,,,,,,
1632292863.449,,,2.416953,0.881638,0.000000,0.000000,0.000000,0.000000,1.238622,0.000000,0.784524,0.082973,0.000000,0.000000,1.246004,0.716188
1632292863.458,0.284503,,,,,,,,,,,,,,,
1632292863.459,,0.242592,,,,,,,,,,,,,,
1632292863.462,,,2.418346,0.889632,0.000000,0.000000,0.000000,0.000000,1.238622,0.000000,0.783803,0.083723,0.000000,0.000000,1.253177,0.716756
1632292863.469,,,2.420262,0.897085,0.000000,0.000000,0.000000,0.000000,1.260076,0.000000,0.782155,0.083897,0.000000,0.000000,1.260548,0.717829
1632292863.480,,,2.422278,0.906509,0.000000,0.000000,0.000000,0.000000,1.254405,0.000000,0.782241,0.084423,0.000000,0.000000,1.268870,0.718962
1632292863.480,0.286912,,,,,,,,,,,,,,,
1632292863.481,,0.243964,,,,,,,,,,,,,,
1632292863.487,,,2.423580,0.913762,0.000000,0.000000,0.000000,0.000000,1.281582,0.000000,0.782273,0.084764,0.000000,0.000000,1.275592,0.719976
1632292863.499,,,2.424967,0.921817,0.000000,0.000000,0.000000,0.000000,1.281582,0.000000,0.782357,0.084745,0.000000,0.000000,1.283063,0.721093
1632292863.503,,0.242088,,,,,,,,,,,,,,
1632292863.505,0.295599,,,,,,,,,,,,,,,
1632292863.509,,,2.425966,0.930081,0.000000,0.000000,0.000000,0.000000,1.287222,0.000000,0.781599,0.084097,0.000000,0.000000,1.291176,0.721951
1632292863.521,,,2.426820,0.937504,0.000000,0.000000,0.000000,0.000000,1.302923,0.000000,0.780906,0.084115,0.000000,0.000000,1.298646,0.722588
1632292863.526,0.295558,,,,,,,,,,,,,,,
1632292863.526,,0.239895,,,,,,,,,,,,,,
1632292863.534,,,2.428108,0.945138,0.000000,0.000000,0.000000,0.000000,1.309906,0.000000,0.780805,0.084294,0.000000,0.000000,1.305434,0.723136
1632292863.538,,,2.429189,0.952202,0.000000,0.000000,0.000000,0.000000,1.297605,0.000000,0.781983,0.083126,0.000000,0.000000,1.312351,0.723440
1632292863.550,,0.231937,,,,,,,,,,,,,,
1632292863.550,0.302116,,,,,,,,,,,,,,,
1632292863.558,,,2.430627,0.961961,0.000000,0.000000,0.000000,0.000000,1.297605,0.000000,0.783395,0.083313,0.000000,0.000000,1.321898,0.723767
1632292863.566,,,2.432218,0.970113,0.000000,0.000000,0.000000,0.000000,1.326131,0.000000,0.783358,0.081154,0.000000,0.000000,1.329068,0.723343
1632292863.568,,,2.432677,0.976192,0.000000,0.000000,0.000000,0.000000,1.319271,0.000000,0.783364,0.081470,0.000000,0.000000,1.334786,0.722795
1632292863.579,0.298170,,,,,,,,,,,,,,,
1632292863.583,,,2.433133,0.982776,0.000000,0.000000,0.000000,0.000000,1.331917,0.000000,0.783391,0.081465,0.000000,0.000000,1.341074,0.722162
1632292863.583,,0.231895,,,,,,,,,,,,,,
1632292863.589,,,2.433690,0.991513,0.000000,0.000000,0.000000,0.000000,1.344380,0.000000,0.785216,0.081522,0.000000,0.000000,1.349293,0.721367
1632292863.599,,,2.435160,0.999051,0.000000,0.000000,0.000000,0.000000,1.359442,0.000000,0.785429,0.080679,0.000000,0.000000,1.356752,0.720925
1632292863.601,,0.231897,,,,,,,,,,,,,,
1632292863.601,0.292999,,,,,,,,,,,,,,,
1632292863.621,,,2.436457,1.007167,0.000000,0.000000,0.000000,0.000000,1.351691,0.000000,0.786754,0.081044,0.000000,0.000000,1.364436,0.720343
1632292863.621,0.286938,,,,,,,,,,,,,,,
1632292863.622,,0.227744,,,,,,,,,,,,,,
1632292863.627,,,2.438367,1.018365,0.000000,0.000000,0.000000,0.000000,1.364978,0.000000,0.786656,0.081073,0.000000,0.000000,1.374884,0.719711
1632292863.653,,,2.439172,1.023411,0.000000,0.000000,0.000000,0.000000,1.380977,0.000000,0.787437,0.080128,0.000000,0.000000,1.379681,0.719194
1632292863.654,,0.230037,,,,,,,,,,,,,,
1632292863.654,0.280444,,,,,,,,,,,,,,,
1632292863.658,,,2.442420,1.044570,0.000000,0.000000,0.000000,0.000000,1.388808,0.000000,0.784836,0.081614,0.000000,0.000000,1.399229,0.717628
1632292863.680,0.276860,,,,,,,,,,,,,,,
1632292863.680,,0.234297,,,,,,,,,,,,,,
1632292863.688,,,2.443158,1.056883,0.000000,0.000000,0.000000,0.000000,1.403190,0.000000,0.785474,0.080589,0.000000,0.000000,1.409999,0.716660
1632292863.691,,,2.443031,1.071849,0.000000,0.000000,0.000000,0.000000,1.405417,0.000000,0.783037,0.084632,0.000000,0.000000,1.422733,0.716607
1632292863.698,,,2.442963,1.074467,0.000000,0.000000,0.000000,0.000000,1.405417,0.000000,0.782764,0.083841,0.000000,0.000000,1.424967,0.716678
1632292863.708,0.285316,,,,,,,,,,,,,,,
1632292863.709,,0.238387,,,,,,,,,,,,,,
1632292863.721,,,2.443908,1.086253,0.000000,0.000000,0.000000,0.000000,1.419704,0.000000,0.781080,0.080073,0.000000,0.000000,1.435706,0.716833
1632292863.727,,,2.444397,1.100016,0.000000,0.000000,0.000000,0.000000,1.445730,0.000000,0.780474,0.085271,0.000000,0.000000,1.448970,0.717239
1632292863.730,0.293867,,,,,,,,,,,,,,,
1632292863.731,,0.236640,,,,,,,,,,,,,,
1632292863.736,,,2.444430,1.102275,0.000000,0.000000,0.000000,0.000000,1.445730,0.000000,0.780543,0.084347,0.000000,0.000000,1.451152,0.717423
1632292863.742,,,2.444347,1.110333,0.000000,0.000000,0.000000,0.000000,1.456512,0.000000,0.782050,0.081940,0.000000,0.000000,1.458787,0.717768
1632292863.754,,,2.444306,1.113099,0.000000,0.000000,0.000000,0.000000,1.456512,0.000000,0.782461,0.082104,0.000000,0.000000,1.461408,0.717829
1632292863.757,,,2.444191,1.118834,0.000000,0.000000,0.000000,0.000000,1.448309,0.000000,0.783304,0.082376,0.000000,0.000000,1.466719,0.717962
1632292863.758,0.302318,,,,,,,,,,,,,,,
1632292863.760,,0.234157,,,,,,,,,,,,,,
1632292863.765,,,2.444142,1.125544,0.000000,0.000000,0.000000,0.000000,1.475469,0.000000,0.784193,0.082842,0.000000,0.000000,1.472503,0.718065
1632292863.779,,,2.443080,1.140715,0.000000,0.000000,0.000000,0.000000,1.484028,0.000000,0.784379,0.082156,0.000000,0.000000,1.485799,0.717904
1632292863.788,0.295092,,,,,,,,,,,,,,,
1632292863.788,,0.233630,,,,,,,,,,,,,,
1632292863.793,,,2.442824,1.143846,0.000000,0.000000,0.000000,0.000000,1.484028,0.000000,0.784388,0.082262,0.000000,0.000000,1.488547,0.717854
1632292863.800,,,2.441847,1.156366,0.000000,0.000000,0.000000,0.000000,1.484114,0.000000,0.786651,0.081309,0.000000,0.000000,1.500475,0.717460
1632292863.809,,,2.441128,1.163527,0.000000,0.000000,0.000000,0.000000,1.484114,0.000000,0.786981,0.082019,0.000000,0.000000,1.507132,0.717247
1632292863.815,0.288785,,,,,,,,,,,,,,,
1632292863.815,,0.231772,,,,,,,,,,,,,,
1632292863.817,,,2.440863,1.165968,0.000000,0.000000,0.000000,0.000000,1.484114,0.000000,0.787111,0.081998,0.000000,0.000000,1.509403,0.717199
1632292863.822,,,2.440334,1.170753,0.000000,0.000000,0.000000,0.000000,1.484114,0.000000,0.787303,0.081586,0.000000,0.000000,1.513854,0.716979
1632292863.830,,,2.440316,1.179644,0.000000,0.000000,0.000000,0.000000,1.502490,0.000000,0.787219,0.081521,0.000000,0.000000,1.521272,0.716651
1632292863.839,0.280387,,,,,,,,,,,,,,,
1632292863.840,,0.225606,,,,,,,,,,,,,,
1632292863.842,,,2.439676,1.187775,0.000000,0.000000,0.000000,0.000000,1.512743,0.000000,0.788063,0.081746,0.000000,0.000000,1.528265,0.716302
1632292863.849,,,2.439482,1.194968,0.000000,0.000000,0.000000,0.000000,1.539894,0.000000,0.787303,0.079031,0.000000,0.000000,1.535279,0.715380
1632292863.862,0.279527,,,,,,,,,,,,,,,
1632292863.863,,0.226963,,,,,,,,,,,,,,
1632292863.876,,,2.439070,1.202501,0.000000,0.000000,0.000000,0.000000,1.547036,0.000000,0.786615,0.079244,0.000000,0.000000,1.542621,0.714399
1632292863.886,0.279022,,,,,,,,,,,,,,,
1632292863.891,,0.228481,,,,,,,,,,,,,,
1632292863.897,,,2.438976,1.213700,0.000000,0.000000,0.000000,0.000000,1.547036,0.000000,0.787505,0.079311,0.000000,0.000000,1.553411,0.713003
1632292863.906,,,2.435899,1.234117,0.000000,0.000000,0.000000,0.000000,1.560124,0.000000,0.784290,0.081454,0.000000,0.000000,1.572815,0.710806
1632292863.912,,,2.435528,1.242369,0.000000,0.000000,0.000000,0.000000,1.574635,0.000000,0.783197,0.079700,0.000000,0.000000,1.580683,0.710215
1632292863.915,0.281551,,,,,,,,,,,,,,,
1632292863.916,,0.227469,,,,,,,,,,,,,,
1632292863.936,0.294454,,,,,,,,,,,,,,,
1632292863.936,,0.222843,,,,,,,,,,,,,,
1632292863.949,,,2.433051,1.263351,0.000000,0.000000,0.000000,0.000000,1.585866,0.000000,0.784916,0.079200,0.000000,0.000000,1.598947,0.708635
1632292863.959,,,2.430920,1.274823,0.000000,0.000000,0.000000,0.000000,1.610971,0.000000,0.786175,0.078767,0.000000,0.000000,1.610089,0.707038
1632292863.960,0.294432,,,,,,,,,,,,,,,
1632292863.960,,0.223233,,,,,,,,,,,,,,
1632292863.966,,,2.430330,1.283336,0.000000,0.000000,0.000000,0.000000,1.618042,0.000000,0.787111,0.077724,0.000000,0.000000,1.617367,0.705944
1632292863.984,0.283577,,,,,,,,,,,,,,,
1632292863.985,,0.224518,,,,,,,,,,,,,,
1632292863.992,,,2.428636,1.291346,0.000000,0.000000,0.000000,0.000000,1.620043,0.000000,0.787369,0.079183,0.000000,0.000000,1.624679,0.704940
1632292864.000,,,2.425975,1.309963,0.000000,0.000000,0.000000,0.000000,1.619193,0.000000,0.785325,0.077895,0.000000,0.000000,1.640238,0.703145
1632292864.009,0.279426,,,,,,,,,,,,,,,
1632292864.010,,0.228930,,,,,,,,,,,,,,
1632292864.011,,,2.425000,1.316147,0.000000,0.000000,0.000000,0.000000,1.637364,0.000000,0.785722,0.078782,0.000000,0.000000,1.645947,0.702452
1632292864.031,,,2.421498,1.330386,0.000000,0.000000,0.000000,0.000000,1.640272,0.000000,0.786791,0.082753,0.000000,0.000000,1.659387,0.701985
1632292864.037,,,2.419099,1.339677,0.000000,0.000000,0.000000,0.000000,1.661011,0.000000,0.785781,0.079795,0.000000,0.000000,1.667797,0.702054
1632292864.042,0.285823,,,,,,,,,,,,,,,
1632292864.042,,0.233558,,,,,,,,,,,,,,
1632292864.047,,,2.417849,1.347568,0.000000,0.000000,0.000000,0.000000,1.654310,0.000000,0.785108,0.081405,0.000000,0.000000,1.674799,0.702341
1632292864.060,,,2.416780,1.355094,0.000000,0.000000,0.000000,0.000000,1.675246,0.000000,0.783875,0.081067,0.000000,0.000000,1.681646,0.702805
1632292864.067,0.285407,,,,,,,,,,,,,,,
1632292864.069,,0.228109,,,,,,,,,,,,,,
1632292864.070,,,2.415594,1.363230,0.000000,0.000000,0.000000,0.000000,1.673385,0.000000,0.782594,0.080873,0.000000,0.000000,1.688819,0.703299
1632292864.095,0.291941,,,,,,,,,,,,,,,
1632292864.095,,0.230250,,,,,,,,,,,,,,
1632292864.096,,,2.413381,1.374503,0.000000,0.000000,0.000000,0.000000,1.682398,0.000000,0.781853,0.078881,0.000000,0.000000,1.699393,0.702812
1632292864.104,,,2.410744,1.390048,0.000000,0.000000,0.000000,0.000000,1.698042,0.000000,0.781278,0.081260,0.000000,0.000000,1.713639,0.702572
1632292864.117,,,2.408872,1.400828,0.000000,0.000000,0.000000,0.000000,1.715088,0.000000,0.781114,0.078755,0.000000,0.000000,1.722923,0.702665
1632292864.118,0.296171,,,,,,,,,,,,,,,
1632292864.118,,0.232782,,,,,,,,,,,,,,
1632292864.126,,,2.407426,1.406640,0.000000,0.000000,0.000000,0.000000,1.730496,0.000000,0.781503,0.079658,0.000000,0.000000,1.727991,0.702440
1632292864.140,,,2.405596,1.414230,0.000000,0.000000,0.000000,0.000000,1.717520,0.000000,0.782660,0.081072,0.000000,0.000000,1.735070,0.702499
1632292864.148,,,2.404956,1.416785,0.000000,0.000000,0.000000,0.000000,1.717520,0.000000,0.783085,0.081056,0.000000,0.000000,1.737458,0.702569
1632292864.148,0.299483,,,,,,,,,,,,,,,
1632292864.150,,,2.401144,1.430230,0.000000,0.000000,0.000000,0.000000,1.736385,0.000000,0.782024,0.080645,0.000000,0.000000,1.748991,0.702911
1632292864.150,,0.243335,,,,,,,,,,,,,,
1632292864.159,,,2.400484,1.432469,0.000000,0.000000,0.000000,0.000000,1.736385,0.000000,0.781847,0.080700,0.000000,0.000000,1.750925,0.702947
1632292864.177,,,2.398200,1.439286,0.000000,0.000000,0.000000,0.000000,1.738613,0.000000,0.781991,0.084328,0.000000,0.000000,1.757282,0.704156
1632292864.181,0.295557,,,,,,,,,,,,,,,
1632292864.181,,0.248168,,,,,,,,,,,,,,
1632292864.182,,,2.394518,1.452419,0.000000,0.000000,0.000000,0.000000,1.761684,0.000000,0.781369,0.083785,0.000000,0.000000,1.770027,0.706827
1632292864.189,,,2.392924,1.456994,0.000000,0.000000,0.000000,0.000000,1.761684,0.000000,0.780790,0.085215,0.000000,0.000000,1.774556,0.708004
1632292864.205,0.298406,,,,,,,,,,,,,,,
1632292864.209,,,2.391789,1.460181,0.000000,0.000000,0.000000,0.000000,1.764188,0.000000,0.780552,0.085504,0.000000,0.000000,1.777739,0.708938
1632292864.209,,0.244353,,,,,,,,,,,,,,
1632292864.214,,,2.388995,1.467933,0.000000,0.000000,0.000000,0.000000,1.777673,0.000000,0.780028,0.085876,0.000000,0.000000,1.785638,0.710989
1632292864.218,,,2.385688,1.479692,0.000000,0.000000,0.000000,0.000000,1.784420,0.000000,0.779643,0.082601,0.000000,0.000000,1.796164,0.713088
1632292864.229,0.301946,,,,,,,,,,,,,,,
1632292864.230,,0.240774,,,,,,,,,,,,,,
1632292864.232,,,2.384195,1.484881,0.000000,0.000000,0.000000,0.000000,1.784420,0.000000,0.779276,0.083594,0.000000,0.000000,1.800843,0.713785
1632292864.246,,,2.381378,1.493607,0.000000,0.000000,0.000000,0.000000,1.788312,0.000000,0.779922,0.082992,0.000000,0.000000,1.808888,0.714600
1632292864.250,,,2.378423,1.504070,0.000000,0.000000,0.000000,0.000000,1.822647,0.000000,0.779712,0.082865,0.000000,0.000000,1.818754,0.715416
1632292864.260,0.305100,,,,,,,,,,,,,,,
1632292864.260,,0.241821,,,,,,,,,,,,,,
1632292864.261,,,2.377535,1.507099,0.000000,0.000000,0.000000,0.000000,1.822647,0.000000,0.779654,0.082906,0.000000,0.000000,1.821629,0.715635
1632292864.273,,,2.374799,1.515216,0.000000,0.000000,0.000000,0.000000,1.809826,0.000000,0.780956,0.083647,0.000000,0.000000,1.829350,0.716431
1632292864.279,,,2.370242,1.525828,0.000000,0.000000,0.000000,0.000000,1.817012,0.000000,0.781395,0.084070,0.000000,0.000000,1.839109,0.717410
1632292864.288,0.303727,,,,,,,,,,,,,,,
1632292864.288,,0.246778,,,,,,,,,,,,,,
1632292864.305,,,2.368777,1.529149,0.000000,0.000000,0.000000,0.000000,1.824207,0.000000,0.781552,0.084045,0.000000,0.000000,1.842212,0.717724
1632292864.306,,,2.363182,1.543431,0.000000,0.000000,0.000000,0.000000,1.848909,0.000000,0.781534,0.087252,0.000000,0.000000,1.857196,0.720623
1632292864.311,,,2.360660,1.548214,0.000000,0.000000,0.000000,0.000000,1.848909,0.000000,0.782295,0.086296,0.000000,0.000000,1.862225,0.721584
1632292864.316,,,2.359324,1.550725,0.000000,0.000000,0.000000,0.000000,1.845842,0.000000,0.782652,0.086221,0.000000,0.000000,1.864863,0.722056
1632292864.316,0.297372,,,,,,,,,,,,,,,
1632292864.316,,0.248079,,,,,,,,,,,,,,
1632292864.329,,,2.355513,1.558580,0.000000,0.000000,0.000000,0.000000,1.861877,0.000000,0.781404,0.086079,0.000000,0.000000,1.872512,0.723732
1632292864.338,,,2.353060,1.564329,0.000000,0.000000,0.000000,0.000000,1.880329,0.000000,0.781028,0.085877,0.000000,0.000000,1.878516,0.724828
1632292864.342,,,2.350309,1.570152,0.000000,0.000000,0.000000,0.000000,1.871384,0.000000,0.781783,0.086094,0.000000,0.000000,1.884736,0.725860
1632292864.348,,,2.348522,1.573869,0.000000,0.000000,0.000000,0.000000,1.892239,0.000000,0.781930,0.086165,0.000000,0.000000,1.888832,0.726597
1632292864.354,0.296915,,,,,,,,,,,,,,,
1632292864.355,,0.247814,,,,,,,,,,,,,,
1632292864.362,,,2.344914,1.580968,0.000000,0.000000,0.000000,0.000000,1.892239,0.000000,0.782183,0.086166,0.000000,0.000000,1.896068,0.727880
1632292864.368,,,2.341679,1.588171,0.000000,0.000000,0.000000,0.000000,1.889460,0.000000,0.783081,0.085793,0.000000,0.000000,1.903360,0.729173
1632292864.379,,0.231721,,,,,,,,,,,,,,
1632292864.379,,,2.339135,1.593732,0.000000,0.000000,0.000000,0.000000,1.889460,0.000000,0.783735,0.085932,0.000000,0.000000,1.909017,0.730136
1632292864.384,0.297725,,,,,,,,,,,,,,,
1632292864.401,,,2.334656,1.603540,0.000000,0.000000,0.000000,0.000000,1.918473,0.000000,0.784781,0.078971,0.000000,0.000000,1.919107,0.729408
1632292864.402,0.291427,,,,,,,,,,,,,,,
1632292864.402,,0.229710,,,,,,,,,,,,,,
1632292864.413,,,2.330214,1.613826,0.000000,0.000000,0.000000,0.000000,1.919357,0.000000,0.786078,0.082919,0.000000,0.000000,1.930089,0.727786
1632292864.420,,,2.324014,1.624692,0.000000,0.000000,0.000000,0.000000,1.946073,0.000000,0.785805,0.080133,0.000000,0.000000,1.941451,0.726556
1632292864.426,,,2.322571,1.627177,0.000000,0.000000,0.000000,0.000000,1.946073,0.000000,0.785643,0.080569,0.000000,0.000000,1.944061,0.726205
1632292864.429,0.287012,,,,,,,,,,,,,,,
1632292864.429,,0.233514,,,,,,,,,,,,,,
1632292864.432,,,2.320233,1.632839,0.000000,0.000000,0.000000,0.000000,1.936539,0.000000,0.785860,0.080290,0.000000,0.000000,1.949446,0.725491
1632292864.448,,,2.316862,1.638393,0.000000,0.000000,0.000000,0.000000,1.943584,0.000000,0.785312,0.082329,0.000000,0.000000,1.955544,0.724982
1632292864.452,,,2.312478,1.647096,0.000000,0.000000,0.000000,0.000000,1.948369,0.000000,0.786731,0.081618,0.000000,0.000000,1.964527,0.724359
1632292864.454,0.284135,,,,,,,,,,,,,,,
1632292864.454,,0.230517,,,,,,,,,,,,,,
1632292864.458,,,2.309506,1.652175,0.000000,0.000000,0.000000,0.000000,1.963497,0.000000,0.787505,0.081329,0.000000,0.000000,1.969531,0.723908
1632292864.468,,,2.306548,1.657180,0.000000,0.000000,0.000000,0.000000,1.963497,0.000000,0.788227,0.081302,0.000000,0.000000,1.974468,0.723473
1632292864.478,0.279830,,,,,,,,,,,,,,,
1632292864.478,,0.231442,,,,,,,,,,,,,,
1632292864.482,,,2.301318,1.667704,0.000000,0.000000,0.000000,0.000000,1.969778,0.000000,0.788066,0.080522,0.000000,0.000000,1.984528,0.722545
1632292864.488,,,2.298776,1.672709,0.000000,0.000000,0.000000,0.000000,1.969778,0.000000,0.787775,0.080924,0.000000,0.000000,1.989337,0.722144
1632292864.507,0.274386,,,,,,,,,,,,,,,
1632292864.507,,0.232835,,,,,,,,,,,,,,
1632292864.518,,,2.288900,1.687787,0.000000,0.000000,0.000000,0.000000,2.005036,0.000000,0.789292,0.081846,0.000000,0.000000,2.005363,0.720913
1632292864.532,0.275150,,,,,,,,,,,,,,,
1632292864.532,,0.238616,,,,,,,,,,,,,,
1632292864.538,,,2.282331,1.698267,0.000000,0.000000,0.000000,0.000000,2.007977,0.000000,0.788570,0.082416,0.000000,0.000000,2.017246,0.720374
1632292864.549,,,2.277373,1.708190,0.000000,0.000000,0.000000,0.000000,2.020035,0.000000,0.788213,0.083104,0.000000,0.000000,2.027088,0.721080
1632292864.551,,,2.274352,1.712831,0.000000,0.000000,0.000000,0.000000,2.020035,0.000000,0.788106,0.083425,0.000000,0.000000,2.031791,0.721431
1632292864.558,,0.236354,,,,,,,,,,,,,,
1632292864.558,,,2.269710,1.719402,0.000000,0.000000,0.000000,0.000000,2.020456,0.000000,0.788317,0.083926,0.000000,0.000000,2.039031,0.721789
1632292864.558,0.270237,,,,,,,,,,,,,,,
1632292864.573,,,2.267295,1.723240,0.000000,0.000000,0.000000,0.000000,2.036877,0.000000,0.787283,0.083675,0.000000,0.000000,2.043336,0.722033
1632292864.581,0.273572,,,,,,,,,,,,,,,
1632292864.582,,0.236143,,,,,,,,,,,,,,
1632292864.585,,,2.258285,1.735091,0.000000,0.000000,0.000000,0.000000,2.045232,0.000000,0.785806,0.082955,0.000000,0.000000,2.056673,0.722406
1632292864.589,,,2.253123,1.742538,0.000000,0.000000,0.000000,0.000000,2.058580,0.000000,0.786085,0.082615,0.000000,0.000000,2.064274,0.722370
1632292864.606,,,2.251674,1.744600,0.000000,0.000000,0.000000,0.000000,2.058580,0.000000,0.786187,0.082641,0.000000,0.000000,2.066389,0.722355
1632292864.608,0.277757,,,,,,,,,,,,,,,
1632292864.608,,0.234242,,,,,,,,,,,,,,
1632292864.620,,,2.243299,1.756622,0.000000,0.000000,0.000000,0.000000,2.077920,0.000000,0.786243,0.082660,0.000000,0.000000,2.078916,0.722364
1632292864.634,0.282738,,,,,,,,,,,,,,,
1632292864.635,,0.232559,,,,,,,,,,,,,,
1632292864.638,,,2.237359,1.765416,0.000000,0.000000,0.000000,0.000000,2.091049,0.000000,0.786692,0.081816,0.000000,0.000000,2.089648,0.721964
1632292864.641,,,2.229199,1.777205,0.000000,0.000000,0.000000,0.000000,2.098241,0.000000,0.786343,0.081201,0.000000,0.000000,2.102037,0.721392
1632292864.651,,,2.224884,1.783589,0.000000,0.000000,0.000000,0.000000,2.112105,0.000000,0.785180,0.081435,0.000000,0.000000,2.109345,0.720867
1632292864.655,0.282529,,,,,,,,,,,,,,,
1632292864.656,,0.234255,,,,,,,,,,,,,,
1632292864.671,,,2.218585,1.792749,0.000000,0.000000,0.000000,0.000000,2.112105,0.000000,0.783376,0.082061,0.000000,0.000000,2.119912,0.720580
1632292864.683,0.286016,,,,,,,,,,,,,,,
1632292864.683,,0.235400,,,,,,,,,,,,,,
1632292864.691,,,2.210417,1.803711,0.000000,0.000000,0.000000,0.000000,2.134312,0.000000,0.784802,0.081546,0.000000,0.000000,2.132175,0.720337
1632292864.697,,,2.208038,1.806830,0.000000,0.000000,0.000000,0.000000,2.134312,0.000000,0.785116,0.081909,0.000000,0.000000,2.135693,0.720332
1632292864.700,,,2.202717,1.813392,0.000000,0.000000,0.000000,0.000000,2.126724,0.000000,0.783951,0.082445,0.000000,0.000000,2.142765,0.720360
1632292864.704,,,2.200181,1.817029,0.000000,0.000000,0.000000,0.000000,2.129031,0.000000,0.784039,0.082060,0.000000,0.000000,2.146848,0.720380
1632292864.706,0.292204,,,,,,,,,,,,,,,
1632292864.706,,0.235333,,,,,,,,,,,,,,
1632292864.723,,,2.195274,1.822347,0.000000,0.000000,0.000000,0.000000,2.138454,0.000000,0.784083,0.082764,0.000000,0.000000,2.153589,0.720264
1632292864.728,0.289116,,,,,,,,,,,,,,,
1632292864.730,,0.239622,,,,,,,,,,,,,,
1632292864.731,,,2.187504,1.831422,0.000000,0.000000,0.000000,0.000000,2.157403,0.000000,0.783752,0.082165,0.000000,0.000000,2.164006,0.720352
1632292864.738,,,2.183263,1.836284,0.000000,0.000000,0.000000,0.000000,2.157403,0.000000,0.783862,0.083413,0.000000,0.000000,2.169638,0.720710
1632292864.747,,,2.179635,1.840617,0.000000,0.000000,0.000000,0.000000,2.163728,0.000000,0.784118,0.083443,0.000000,0.000000,2.174811,0.721058
1632292864.755,0.289439,,,,,,,,,,,,,,,
1632292864.755,,0.236895,,,,,,,,,,,,,,
1632292864.766,,,2.170432,1.850473,0.000000,0.000000,0.000000,0.000000,2.164649,0.000000,0.783130,0.082682,0.000000,0.000000,2.186852,0.721478
1632292864.780,,,2.164807,1.856597,0.000000,0.000000,0.000000,0.000000,2.191169,0.000000,0.782241,0.082900,0.000000,0.000000,2.195031,0.721634
1632292864.781,0.289566,,,,,,,,,,,,,,,
1632292864.785,,0.236778,,,,,,,,,,,,,,
1632292864.791,,,2.157291,1.866344,0.000000,0.000000,0.000000,0.000000,2.194855,0.000000,0.782527,0.081531,0.000000,0.000000,2.206061,0.721643
1632292864.800,,,2.150440,1.874520,0.000000,0.000000,0.000000,0.000000,2.203162,0.000000,0.783833,0.082795,0.000000,0.000000,2.216277,0.721388
1632292864.807,0.297328,,,,,,,,,,,,,,,
1632292864.807,,0.232136,,,,,,,,,,,,,,
1632292864.810,,,2.148513,1.876763,0.000000,0.000000,0.000000,0.000000,2.220643,0.000000,0.784225,0.082636,0.000000,0.000000,2.219172,0.721443
1632292864.819,,,2.142671,1.882493,0.000000,0.000000,0.000000,0.000000,2.217417,0.000000,0.785824,0.081588,0.000000,0.000000,2.226326,0.720998
1632292864.830,,,2.138341,1.886667,0.000000,0.000000,0.000000,0.000000,2.234839,0.000000,0.786943,0.081765,0.000000,0.000000,2.232029,0.720675
1632292864.832,0.295367,,,,,,,,,,,,,,,
1632292864.833,,0.236692,,,,,,,,,,,,,,
1632292864.844,,,2.134705,1.891014,0.000000,0.000000,0.000000,0.000000,2.242241,0.000000,0.786935,0.081221,0.000000,0.000000,2.237375,0.720392
1632292864.851,,,2.127907,1.898031,0.000000,0.000000,0.000000,0.000000,2.248211,0.000000,0.787972,0.083243,0.000000,0.000000,2.245624,0.720482
1632292864.857,,,2.119656,1.905677,0.000000,0.000000,0.000000,0.000000,2.249695,0.000000,0.788140,0.083243,0.000000,0.000000,2.256394,0.720730
1632292864.858,0.278953,,,,,,,,,,,,,,,
1632292864.858,,0.235948,,,,,,,,,,,,,,
1632292864.866,,,2.115953,1.909130,0.000000,0.000000,0.000000,0.000000,2.248535,0.000000,0.787197,0.083205,0.000000,0.000000,2.260848,0.720944
1632292864.875,,,2.110559,1.914115,0.000000,0.000000,0.000000,0.000000,2.254727,0.000000,0.786867,0.082901,0.000000,0.000000,2.267364,0.720981
1632292864.889,,,2.105470,1.918595,0.000000,0.000000,0.000000,0.000000,2.278178,0.000000,0.786079,0.082987,0.000000,0.000000,2.273820,0.721023
1632292864.889,0.274650,,,,,,,,,,,,,,,
1632292864.889,,0.234602,,,,,,,,,,,,,,
1632292864.894,,,2.097870,1.925229,0.000000,0.000000,0.000000,0.000000,2.285366,0.000000,0.785086,0.082303,0.000000,0.000000,2.283561,0.721062
1632292864.898,,,2.096653,1.926271,0.000000,0.000000,0.000000,0.000000,2.285366,0.000000,0.784920,0.082336,0.000000,0.000000,2.285112,0.721049
1632292864.912,0.283004,,,,,,,,,,,,,,,
1632292864.912,,0.231183,,,,,,,,,,,,,,
1632292864.915,,,2.093142,1.930180,0.000000,0.000000,0.000000,0.000000,2.280781,0.000000,0.784713,0.081735,0.000000,0.000000,2.289930,0.720887
1632292864.926,,,2.082336,1.941358,0.000000,0.000000,0.000000,0.000000,2.295604,0.000000,0.785071,0.079671,0.000000,0.000000,2.303594,0.719744
1632292864.936,0.287921,,,,,,,,,,,,,,,
1632292864.937,,0.227156,,,,,,,,,,,,,,
1632292864.937,,,2.075666,1.947714,0.000000,0.000000,0.000000,0.000000,2.294110,0.000000,0.784933,0.081419,0.000000,0.000000,2.312483,0.718924
1632292864.945,,,2.072277,1.950867,0.000000,0.000000,0.000000,0.000000,2.310891,0.000000,0.784788,0.081067,0.000000,0.000000,2.317046,0.718574
1632292864.952,,,2.066187,1.956787,0.000000,0.000000,0.000000,0.000000,2.327351,0.000000,0.784214,0.079372,0.000000,0.000000,2.324566,0.717532
1632292864.957,,,2.061964,1.961172,0.000000,0.000000,0.000000,0.000000,2.335620,0.000000,0.785050,0.079249,0.000000,0.000000,2.330165,0.716683
1632292864.962,,,2.059718,1.963478,0.000000,0.000000,0.000000,0.000000,2.335620,0.000000,0.785471,0.079256,0.000000,0.000000,2.333123,0.716253
1632292864.965,0.286389,,,,,,,,,,,,,,,
1632292864.966,,0.233817,,,,,,,,,,,,,,
1632292864.976,,,2.052650,1.970079,0.000000,0.000000,0.000000,0.000000,2.324311,0.000000,0.784919,0.082248,0.000000,0.000000,2.341572,0.715963
1632292864.982,,,2.047350,1.974563,0.000000,0.000000,0.000000,0.000000,2.329912,0.000000,0.784504,0.081851,0.000000,0.000000,2.347282,0.715917
1632292864.994,,0.240173,,,,,,,,,,,,,,
1632292864.994,0.282983,,,,,,,,,,,,,,,
1632292864.996,,,2.040624,1.979232,0.000000,0.000000,0.000000,0.000000,2.347667,0.000000,0.784310,0.084507,0.000000,0.000000,2.354695,0.716455
1632292865.010,,,2.033078,1.985656,0.000000,0.000000,0.000000,0.000000,2.364189,0.000000,0.782817,0.083027,0.000000,0.000000,2.363726,0.717558
1632292865.016,,,2.026948,1.989991,0.000000,0.000000,0.000000,0.000000,2.358545,0.000000,0.781343,0.083949,0.000000,0.000000,2.370791,0.718039
1632292865.021,0.286061,,,,,,,,,,,,,,,
1632292865.021,,0.243199,,,,,,,,,,,,,,
1632292865.022,,,2.022332,1.993647,0.000000,0.000000,0.000000,0.000000,2.372267,0.000000,0.781161,0.083503,0.000000,0.000000,2.376044,0.718516
1632292865.041,,,2.016687,1.998904,0.000000,0.000000,0.000000,0.000000,2.385643,0.000000,0.779674,0.083667,0.000000,0.000000,2.383250,0.719364
1632292865.045,0.299644,,,,,,,,,,,,,,,
1632292865.045,,0.235787,,,,,,,,,,,,,,
1632292865.049,,,2.009092,2.005638,0.000000,0.000000,0.000000,0.000000,2.378660,0.000000,0.778209,0.083697,0.000000,0.000000,2.392433,0.720483
1632292865.061,,,2.003441,2.010544,0.000000,0.000000,0.000000,0.000000,2.399988,0.000000,0.778278,0.081372,0.000000,0.000000,2.399352,0.720447
1632292865.070,,,1.996936,2.015193,0.000000,0.000000,0.000000,0.000000,2.394688,0.000000,0.777791,0.082173,0.000000,0.000000,2.407423,0.720158
1632292865.073,0.304728,,,,,,,,,,,,,,,
1632292865.073,,0.237121,,,,,,,,,,,,,,
1632292865.076,,,1.991154,2.019279,0.000000,0.000000,0.000000,0.000000,2.399539,0.000000,0.778413,0.082052,0.000000,0.000000,2.413849,0.720001
1632292865.088,,,1.986257,2.022603,0.000000,0.000000,0.000000,0.000000,2.406133,0.000000,0.779665,0.082478,0.000000,0.000000,2.419164,0.719882
1632292865.095,,,1.979667,2.027022,0.000000,0.000000,0.000000,0.000000,2.406133,0.000000,0.781337,0.082664,0.000000,0.000000,2.426281,0.719801
1632292865.096,0.311011,,,,,,,,,,,,,,,
1632292865.097,,0.238092,,,,,,,,,,,,,,
1632292865.104,,,1.973801,2.031948,0.000000,0.000000,0.000000,0.000000,2.424202,0.000000,0.781746,0.082199,0.000000,0.000000,2.433364,0.719898
1632292865.111,,,1.966710,2.036894,0.000000,0.000000,0.000000,0.000000,2.437722,0.000000,0.781742,0.083040,0.000000,0.000000,2.440854,0.720159
1632292865.122,,,1.960238,2.041421,0.000000,0.000000,0.000000,0.000000,2.430294,0.000000,0.783687,0.082641,0.000000,0.000000,2.448490,0.720467
1632292865.125,0.298102,,,,,,,,,,,,,,,
1632292865.125,,0.237798,,,,,,,,,,,,,,
1632292865.130,,,1.953935,2.045624,0.000000,0.000000,0.000000,0.000000,2.442732,0.000000,0.784476,0.083054,0.000000,0.000000,2.454869,0.720722
1632292865.145,,,1.947344,2.049503,0.000000,0.000000,0.000000,0.000000,2.457693,0.000000,0.785744,0.083299,0.000000,0.000000,2.462212,0.720950
1632292865.149,0.288800,,,,,,,,,,,,,,,
1632292865.149,,0.239757,,,,,,,,,,,,,,
1632292865.158,,,1.939699,2.054529,0.000000,0.000000,0.000000,0.000000,2.463963,0.000000,0.784969,0.083751,0.000000,0.000000,2.470407,0.721626
1632292865.162,,,1.934358,2.058008,0.000000,0.000000,0.000000,0.000000,2.459083,0.000000,0.784481,0.083483,0.000000,0.000000,2.476538,0.722126
